,APP_Libelle_etablissement,Adresse_2_UA,Code_postal,Libelle_commune,Numero_inspection,Date_inspection,APP_Libelle_activite_etablissement,Synthese_eval_sanit,Agrement,filtre,lat,lon
657,MALINS FRANCE,7 RUE DE CASTELLANE,75008,PARIS 8E ARRONDISSEMENT,16185190,2021-10-01T02:00:00+02:00,Restaurant,Très satisfaisant,,Restaurant,48.872226,2.325137
914,POKE ME 14,1 RUE BOYER BARRET,75014,PARIS 14E ARRONDISSEMENT,15804038,2020-12-01T01:00:00+01:00,Traiteur,Satisfaisant,,Traiteur,48.833329,2.317301
1105,ZAMANE,118 RUE MOUFFETARD,75005,Paris 5e  Arrondissement,21-039940-1,2021-05-25T02:00:00+02:00,Restaurant,Satisfaisant,,Restaurant,48.840315,2.349701
1111,CARREFOUR EXPRESS,7 RUE MONTMARTRE,75001,Paris 1er Arrondissement,21-092987-1,2021-11-17T01:00:00+01:00,Alimentation générale|Rayon pain/viennoiserie/pâtisserie,Très satisfaisant,,Alimentation générale|Rayon pain/viennoiserie/pâtisserie,48.86392,2.345476
1138,ELIOR CONCESSIONS GARES,11 RUE D'AMSTERDAM,75008,Paris 8e  Arrondissement,21-085883-1,2021-10-20T02:00:00+02:00,Restaurant,Satisfaisant,,Restaurant,48.876531,2.326792
1150,L'ORANGE VERTE,92 RUE DE MAUBEUGE,75010,Paris 10e  Arrondissement,21-087427-1,2021-10-26T02:00:00+02:00,Restaurant,Satisfaisant,,Restaurant,48.879938,2.350684
1157,PIKE POKE,24 RUE VERNIER,75017,Paris 17e  Arrondissement,21-039772-1,2021-05-19T02:00:00+02:00,Restaurant,Très satisfaisant,,Restaurant,48.884166,2.290987
1169,L'AVENUE,85 RUE VAUVENARGUES,75018,Paris 18e  Arrondissement,20-087831-1,2020-12-09T01:00:00+01:00,Restaurant,Satisfaisant,,Restaurant,48.897393,2.329381
1171,PIZZA DELIZIA,116 RUE DU CHEMIN VERT,75011,Paris 11e  Arrondissement,21-050829-1,2021-06-24T02:00:00+02:00,Restaurant,Satisfaisant,,Restaurant,48.861825,2.383547
1175,HOTELIERE MONTMARTRE,11 PL EMILE GOUDEAU,75018,Paris 18e  Arrondissement,21-080646-1,2021-10-06T02:00:00+02:00,Restaurant,Satisfaisant,,Restaurant,48.885917,2.337677
1187,TMS,263 RUE DE BELLEVILLE,75019,Paris 19e  Arrondissement,21-013542-1,2021-02-15T01:00:00+01:00,Restaurant,Très satisfaisant,,Restaurant,48.87556,2.399102
1196,CARREFOUR EXPRESS,7 RUE MONTMARTRE,75001,Paris 1er Arrondissement,21-092978-1,2021-11-17T01:00:00+01:00,Libre service|Alimentation générale,Très satisfaisant,,Libre service|Alimentation générale,48.86392,2.345476
1199,ECOLE MATERNELLE,6 RUE LITTRÉ,75006,Paris 6e  Arrondissement,21-045146-1,2021-03-24T01:00:00+01:00,Restauration collective,Satisfaisant,,Restauration collective,48.845747,2.323705
1210,EDWART,17 RUE VIEILLE DU TEMPLE,75004,Paris 4e  Arrondissement,20-087987-1,2020-12-11T01:00:00+01:00,Chocolatier,Très satisfaisant,,Chocolatier,48.856902,2.356961
1211,ON PARTAGE,137 B RUE DE CHARONNE,75011,Paris 11e  Arrondissement,21-055391-1,2021-07-08T02:00:00+02:00,Restaurant,Très satisfaisant,,Restaurant,48.854257,2.383776
1216,SAS CHOCOLATERIE DE PUYRICARD,6 RUE DU PONT LOUIS PHILIPPE,75004,Paris 4e  Arrondissement,20-087990-1,2020-12-11T01:00:00+01:00,Chocolatier,Très satisfaisant,,Chocolatier,48.854779,2.355456
1224,NOUVEAU CHALET DU LAC,AVENUE DU BEL AIR,75012,Paris 12e  Arrondissement,21-083472-1,2021-10-07T02:00:00+02:00,Restaurant,Satisfaisant,,Restaurant,48.846513,2.397496
1232,CLASSICS HOTEL BASTILLE,131 RUE DE CHARONNE,75011,Paris 11e  Arrondissement,21-055441-1,2021-07-08T02:00:00+02:00,Restaurant,Satisfaisant,,Restaurant,48.855047,2.386555
1233,BEAUMARCHAIS DISTRIBUTION,103 BOULEVARD BEAUMARCHAIS,75003,Paris 3e  Arrondissement,21-053532-1,2021-07-05T02:00:00+02:00,Alimentation générale,Très satisfaisant,,Alimentation générale,48.860281,2.367153
1244,LE NESLE,22 RUE DAUPHINE,75006,Paris 6e  Arrondissement,21-081821-1,2021-10-11T02:00:00+02:00,Restaurant,Satisfaisant,,Restaurant,48.855141,2.339544
1245,DELICES D'ASIE,119 RUE SAINT ANTOINE,75004,Paris 4e  Arrondissement,20-091736-1,2020-12-23T01:00:00+01:00,Restaurant,Satisfaisant,,Restaurant,48.855118,2.360432
1254,TANG FRERES,87 AVENUE DE FLANDRE,75019,Paris 19e  Arrondissement,21-083880-1,2021-10-15T02:00:00+02:00,Traiteur,Très satisfaisant,,Traiteur,48.889503,2.374855
1262,FRANCE MONGKOK SHUFEI RESTAURANT,23 RUE JUGE,75015,Paris 15e  Arrondissement,21-068876-1,2021-08-31T02:00:00+02:00,Restaurant,Satisfaisant,,Restaurant,48.849894,2.29319
1264,LE DAUPHIN,78 RUE DAMREMONT,75018,Paris 18e  Arrondissement,21-079923-1,2021-10-04T02:00:00+02:00,Restaurant,Satisfaisant,,Restaurant,48.892039,2.335357
1281,LA TARENTELLA,LA TARENTELLA,75018,Paris 18e  Arrondissement,20-087866-1,2020-12-09T01:00:00+01:00,Restaurant,Satisfaisant,,Restaurant,48.887473,2.358733
1284,INVICTUS,5 RUE SAINTE BEUVE,75006,Paris 6e  Arrondissement,21-087650-1,2021-10-26T02:00:00+02:00,Restaurant,Satisfaisant,,Restaurant,48.844093,2.329745
1292,RYUKISHIN WAIZ,59 RUE DE RICHELIEU,75002,Paris 2e  Arrondissement,21-069008-1,2021-08-31T02:00:00+02:00,Restaurant,A améliorer,,Restaurant,48.866927,2.337399
1294,GIOVANNI,13 RUE MONTHOLON,75009,Paris 9e  Arrondissement,21-057975-1,2021-07-20T02:00:00+02:00,Restaurant,Très satisfaisant,,Restaurant,48.876554,2.347264
1305,GOLOSINO,4 SQ VERMENOUZE,75005,Paris 5e  Arrondissement,21-040711-1,2021-05-25T02:00:00+02:00,Restaurant,Très satisfaisant,,Restaurant,48.840769,2.348948
1306,APPELLATIONS D ORIGINE,26 RUE LEPIC,75018,Paris 18e  Arrondissement,21-063986-1,2021-05-11T02:00:00+02:00,Alimentation générale,Très satisfaisant,,Alimentation générale,48.885264,2.334327
1309,BISTROT MELAC,42 RUE LEON FROT,75011,Paris 11e  Arrondissement,21-067159-1,2021-08-24T02:00:00+02:00,Restaurant,Satisfaisant,,Restaurant,48.855645,2.386699
1312,CAFE FUSAIN,50 AVENUE PARMENTIER,75011,Paris 11e  Arrondissement,21-041385-1,2021-05-20T02:00:00+02:00,Restaurant,Très satisfaisant,,Restaurant,48.862192,2.376994
1315,SAS EK- VENDOME,33 RUE DANIEL CASANOVA,75001,Paris 1er Arrondissement,21-054580-1,2021-07-06T02:00:00+02:00,Restaurant,Satisfaisant,,Restaurant,48.86812,2.330742
1326,SUPERNOVA,12 RUE REAUMUR,75003,Paris 3e  Arrondissement,21-005079-1,2021-01-19T01:00:00+01:00,Restaurant,Très satisfaisant,,Restaurant,48.864989,2.358966
1328,MCDONALD'S,2 RUE D ORSEL,75018,Paris 18e  Arrondissement,21-017885-1,2021-03-02T01:00:00+01:00,Restaurant,Très satisfaisant,,Restaurant,48.883964,2.34671
1338,CARREFOUR CITY,6 RUE BEAUBOURG,75004,Paris 4e  Arrondissement,20-087981-1,2020-12-11T01:00:00+01:00,Libre service,Très satisfaisant,,Libre service,48.860673,2.353334
1344,CARREFOUR CITY,6 RUE BEAUBOURG,75004,Paris 4e  Arrondissement,20-087982-1,2020-12-11T01:00:00+01:00,Rayon pain/viennoiserie/pâtisserie,Très satisfaisant,,Rayon pain/viennoiserie/pâtisserie,48.860673,2.353334
1345,CHIDO,2 RUE ST PHILIPPE DU ROULE,75008,Paris 8e  Arrondissement,21-040122-1,2021-05-25T02:00:00+02:00,Restaurant,Satisfaisant,,Restaurant,48.873388,2.308878
1346,MONA & CO,48 AVENUE EMILE ZOLA,75015,Paris 15e  Arrondissement,21-080066-1,2021-10-05T02:00:00+02:00,Commerce alimentaire,Très satisfaisant,,,48.846288,2.282783
1351,W.E. I PARIS REPUBLIQUE SAS,"10, PLACE DE LA REPUBLIQUE",75011,Paris 11e  Arrondissement,21-073022-1,2021-09-13T02:00:00+02:00,Restaurant,Très satisfaisant,,Restaurant,48.867386,2.365249
1357,CLINIQUE DU MONT LOUIS,8 RUE DE LA FOLIE REGNAULT,75011,Paris 11e  Arrondissement,21-069091-1,2021-08-31T02:00:00+02:00,Restauration collective,Satisfaisant,,Restauration collective,48.857197,2.385941
1365,ZAZZEN COMMUNAUTE ENFANTINE,98  RUE DE LOURMEL,75015,Paris 15e  Arrondissement,21-085940-1,2021-10-12T02:00:00+02:00,Restauration collective,Très satisfaisant,,Restauration collective,48.843869,2.286353
1366,LE DODO,14 RUE DE LA FIDELITE,75010,Paris 10e  Arrondissement,20-094095-1,2021-01-21T01:00:00+01:00,Restaurant,Satisfaisant,,Restaurant,48.874614,2.356548
1368,LYCEE HOTELIER GUILLAUME TIREL,237 BOULEVARD RASPAIL,75014,Paris 14e  Arrondissement,20-088097-1,2020-12-09T01:00:00+01:00,Restaurant,Satisfaisant,,Restaurant,48.839296,2.330856
1371,CHEZ MILO,16 RUE MAUBLANC,75015,Paris 15e  Arrondissement,21-090580-1,2021-11-05T01:00:00+01:00,Restaurant,Très satisfaisant,,Restaurant,48.839503,2.300122
1374,ZAZEN,158 BOULEVARD PEREIRE,75017,Paris 17e  Arrondissement,21-041175-1,2021-05-28T02:00:00+02:00,Restauration collective,Satisfaisant,,Restauration collective,48.882983,2.293076
1392,L'ALOUETTE,24 RUE DU CHAMP DE L ALOUETTE,75013,Paris 13e  Arrondissement,21-091139-1,2021-11-09T01:00:00+01:00,Restaurant,Satisfaisant,,Restaurant,48.831868,2.344622
1393,DTNG,15 RUE GIT LE COEUR,75006,Paris 6e  Arrondissement,21-040098-1,2021-05-25T02:00:00+02:00,Restaurant,Satisfaisant,,Restaurant,48.853561,2.342558
1404,BARRACUDA,10 PLACE DU COLONEL BOURGOIN,75012,Paris 12e  Arrondissement,21-044366-1,2021-06-03T02:00:00+02:00,Restaurant,Satisfaisant,,Restaurant,48.844576,2.383485
1410,LE JU,16 RUE DES ARCHIVES,75004,Paris 4e  Arrondissement,21-004946-1,2021-01-18T01:00:00+01:00,Restaurant,Satisfaisant,,Restaurant,48.857722,2.354746
1420,CHEZ ADDY ET IDA,4 RUE JAUCOURT,75012,Paris 12e  Arrondissement,21-029204-1,2021-04-09T02:00:00+02:00,Restaurant,Très satisfaisant,,Restaurant,48.846487,2.394632
1424,PARADIS THAI,132 RUE DE TOLBIAC,75013,Paris 13e  Arrondissement,21-058009-1,2021-07-20T02:00:00+02:00,Restaurant,Satisfaisant,,Restaurant,48.826202,2.358579
1426,AROY WOK,91 RUE DE LA VICTOIRE,75009,Paris 9e  Arrondissement,21-040063-1,2021-05-25T02:00:00+02:00,Restaurant,Satisfaisant,,Restaurant,48.874838,2.331021
1442,CARREFOUR MARKET,165 RUE MARCADET,75018,Paris 18e  Arrondissement,21-056446-1,2021-04-13T02:00:00+02:00,Rayon fromagerie,Très satisfaisant,,Rayon fromagerie,48.891353,2.337121
1455,PAI PARTNERS,232 RUE DE RIVOLI,75001,Paris 1er Arrondissement,21-028654-1,2021-04-08T02:00:00+02:00,Restauration collective,Satisfaisant,,Restauration collective,48.865293,2.327782
1462,LYLO,73 RUE DE LA CONVENTION,75015,Paris 15e  Arrondissement,20-088377-1,2020-12-11T01:00:00+01:00,Libre service|Alimentation générale,Très satisfaisant,,Libre service|Alimentation générale,48.842703,2.284647
1464,SAS ESPACE RQP,21 RUE DE MIROMESNIL,75008,Paris 8e  Arrondissement,21-039995-1,2021-05-21T02:00:00+02:00,Restaurant,Satisfaisant,,Restaurant,48.872581,2.315924
1481,INSTITUT ARTHUR VERNES,36 RUE D ASSAS,75006,Paris 6e  Arrondissement,21-055693-1,2021-07-12T02:00:00+02:00,Restauration collective,Très satisfaisant,,Restauration collective,48.847581,2.32965
1489,LE FLEUVE ROUGE,1 RUE PRADIER,75019,Paris 19e  Arrondissement,21-093746-1,2021-10-06T02:00:00+02:00,Restaurant,Satisfaisant,,Restaurant,48.8748,2.381079
1491,CARREFOUR MARKET,165 RUE MARCADET,75018,Paris 18e  Arrondissement,21-056440-1,2021-04-13T02:00:00+02:00,Rayon poissonnerie,Très satisfaisant,,Rayon poissonnerie,48.891353,2.337121
1508,MOGO,89 RUE DE LA VICTOIRE,75009,Paris 9e  Arrondissement,21-040087-1,2021-05-25T02:00:00+02:00,Restaurant,Satisfaisant,,Restaurant,48.874886,2.331184
1509,SOLYLES,SOLYLES,75018,Paris 18e  Arrondissement,21-055623-1,2021-04-13T02:00:00+02:00,Restaurant,Très satisfaisant,,Restaurant,48.889111,2.3401
1512,WOODIZ,16 RUE SOPHIE GERMAIN,75014,Paris 14e  Arrondissement,20-088088-1,2020-12-09T01:00:00+01:00,Restaurant,Satisfaisant,,Restaurant,48.831072,2.330337
1516,LES 2 M DISTRIBUTION,20 RUE DE JESSAINT,75018,Paris 18e  Arrondissement,21-079260-1,2021-07-29T02:00:00+02:00,Libre service,Très satisfaisant,,Libre service,48.885046,2.355703
1520,LA CANTINE VIET-THAI,4 B RUE MICHEL CHASLES,75012,Paris 12e  Arrondissement,21-011171-1,2021-02-10T01:00:00+01:00,Restaurant,Très satisfaisant,,Restaurant,48.846446,2.37403
1521,BISTRO BURGER,26 RUE MONTORGUEIL,75001,Paris 1er Arrondissement,21-055226-1,2021-07-08T02:00:00+02:00,Restaurant,Satisfaisant,,Restaurant,48.863647,2.346505
1523,SUSHI MASSENA,RUE THOMAS MANN,75013,Paris 13e  Arrondissement,21-044498-1,2021-06-07T02:00:00+02:00,Restaurant,Très satisfaisant,,Restaurant,48.829966,2.379982
1526,PROMECOP,22 RUE DU VIEUX COLOMBIER,75006,Paris 6e  Arrondissement,21-040117-1,2021-03-04T01:00:00+01:00,Boulangerie-Pâtisserie,Très satisfaisant,,Boulangerie-Pâtisserie,48.851953,2.330259
1529,LE BOURDONNEC DU CHERCHE MIDI,43 RUE DU CHERCHE MIDI,75006,Paris 6e  Arrondissement,21-040111-1,2021-03-04T01:00:00+01:00,Boucherie-Charcuterie,Très satisfaisant,,Boucherie-Charcuterie,48.849191,2.325951
1530,PHO VIET,115 BD DE L HOPITAL,75013,Paris 13e  Arrondissement,21-034830-1,2021-05-03T02:00:00+02:00,Restaurant,A améliorer,,Restaurant,48.835953,2.359172
1534,ROYAL CROZATIER,"62, RUE CROZATIER",75012,Paris 12e  Arrondissement,21-095171-1,2021-11-17T01:00:00+01:00,Restaurant,Très satisfaisant,,Restaurant,48.849516,2.379706
1535,BLUEBERRY,6 RUE DU SABOT,75006,Paris 6e  Arrondissement,21-080433-1,2021-10-05T02:00:00+02:00,Restaurant,Très satisfaisant,,Restaurant,48.852766,2.331452
1546,LYCEE GENERAL ET TECHNOLOGIQUE TURGOT,69 RUE DE TURBIGO,75003,Paris 3e  Arrondissement,21-025508-1,2021-03-22T01:00:00+01:00,Restauration collective,Satisfaisant,,Restauration collective,48.866138,2.358616
1550,LA CANTINE DE BELLEVILLE,108  BD  DE BELLEVILLE,75020,Paris 20e  Arrondissement,21-080381-1,2021-10-01T02:00:00+02:00,Restaurant,Satisfaisant,,Restaurant,48.874579,2.387059
1551,COMPTOIR DES MERS,1 RUE DE TURENNE,75004,Paris 4e  Arrondissement,20-085935-1,2020-12-04T01:00:00+01:00,Poissonnerie,Très satisfaisant,,Poissonnerie,48.854667,2.362935
1552,CRECHE PLIC PLOC,9 AVENUE DU DOCTEUR ARNOLD NETTER,75012,Paris,21-042472-1,2021-06-01T02:00:00+02:00,Restauration collective,Satisfaisant,,Restauration collective,48.841663,2.404848
1561,LE DUC,243  BOULEVARD  RASPAIL,75014,Paris 14e  Arrondissement,21-080510-1,2021-10-06T02:00:00+02:00,Restaurant,Satisfaisant,,Restaurant,48.838656,2.331117
1563,COLLEGE BEAUMARCHAIS,124  RUE AMELOT,75011,Paris 11e  Arrondissement,21-051302-1,2021-06-28T02:00:00+02:00,Restauration collective,Satisfaisant,,Restauration collective,48.864243,2.3669
1568,SERVICES DIVERS,105 BOULEVARD DE LA VILLETTE,75010,Paris 10e  Arrondissement,21-056216-1,2021-07-13T02:00:00+02:00,Restauration collective,Satisfaisant,,Restauration collective,48.879674,2.370016
1575,LE PARADIS DU FRUIT,32 AVENUE DE WAGRAM,75008,Paris 8e  Arrondissement,21-092650-1,2021-11-16T01:00:00+01:00,Restaurant,Très satisfaisant,,Restaurant,48.876772,2.297499
1578,JONONI TELECOM ET ALIMENTATION,39 RUE DU POTEAU,75018,Paris 18e  Arrondissement,21-040083-1,2021-03-02T01:00:00+01:00,Libre service|Alimentation générale,Très satisfaisant,,Libre service|Alimentation générale,48.894268,2.341273
1597,CROUS-REST UNIVERS BULLIER,39 AVENUE GEORGES BERNANOS,75005,Paris 5e  Arrondissement,20-096132-1,2020-12-10T01:00:00+01:00,Restauration collective,Satisfaisant,,Restauration collective,48.840075,2.337413
1603,"RESTAURANT TAJ, SUPER LAHORE RESTAURANT",149 RUE LA FAYETTE,75010,Paris 10e  Arrondissement,21-090067-1,2021-11-05T01:00:00+01:00,Restaurant,Satisfaisant,,Restaurant,48.879261,2.356452
1609,CASA DE NATA,164 RUE SAINT CHARLES,75015,Paris 15e  Arrondissement,20-088590-1,2020-12-11T01:00:00+01:00,Boulangerie-Pâtisserie,Très satisfaisant,,Boulangerie-Pâtisserie,48.841791,2.281146
1612,OGEC DE LA TRINITE,16 RUE DE MILAN,75009,Paris 9e  Arrondissement,20-088593-1,2020-12-14T01:00:00+01:00,Restauration collective,Satisfaisant,,Restauration collective,48.878865,2.327815
1617,STREET BIDA,1 RUE NICOLE REINE LEPAUTE,75013,Paris 13e  Arrondissement,21-055774-1,2021-07-09T02:00:00+02:00,Restaurant,Satisfaisant,,Restaurant,48.826613,2.381831
1629,CARREFOUR CITY,31 RUE RAMEY,75018,Paris 18e  Arrondissement,20-094292-1,2020-12-18T01:00:00+01:00,Libre service,Très satisfaisant,,Libre service,48.88869,2.346513
1640,BIBLIOTHEQUE NATIONALE DE FRANCE,11 QUAI FRANCOIS MAURIAC,75013,Paris 13e  Arrondissement,21-036386-1,2021-05-07T02:00:00+02:00,Restauration collective,Satisfaisant,,Restauration collective,48.832704,2.378833
1642,P'TITE BOUGNATE,85 BD DE MAGENTA,75010,Paris 10e  Arrondissement,21-089316-1,2021-11-03T01:00:00+01:00,Restaurant,Satisfaisant,,Restaurant,48.876415,2.355599
1643,BURG'HEURE,1 RUE LEON SECHE,75015,Paris 15e  Arrondissement,21-040275-1,2021-05-20T02:00:00+02:00,Restaurant,Très satisfaisant,,Restaurant,48.841925,2.298426
1652,JULIE DIS,96 RUE DE CRIMEE,75019,Paris 19e  Arrondissement,21-078195-1,2021-09-30T02:00:00+02:00,Libre service,Satisfaisant,,Libre service,48.883785,2.384775
1657,DORI,102 AVENUE DE SAINT OUEN,75018,Paris 18e  Arrondissement,21-010795-1,2021-02-10T01:00:00+01:00,Restaurant,Satisfaisant,,Restaurant,48.894067,2.327851
1674,CLICHY 21,21 BOULEVARD DE CLICHY,75009,Paris 9e  Arrondissement,21-040238-1,2021-05-20T02:00:00+02:00,Libre service|Alimentation générale,Très satisfaisant,,Libre service|Alimentation générale,48.882394,2.336552
1684,LE WARUNG,16 RUE FONTAINE DU BUT,75018,Paris 18e  Arrondissement,21-059507-1,2021-07-27T02:00:00+02:00,Restaurant,Satisfaisant,,Restaurant,48.890777,2.339472
1687,FACONELL,88 AV GAMBETTA,75020,Paris 20e  Arrondissement,21-067314-1,2021-08-16T02:00:00+02:00,Restaurant,Satisfaisant,,Restaurant,48.869911,2.402993
1691,INNI,38 RUE LEON FROT,75011,Paris 11e  Arrondissement,21-067783-1,2021-08-26T02:00:00+02:00,Restaurant,Très satisfaisant,,Restaurant,48.855424,2.386931
1696,SARL THE TEA CADDY,14 RUE ST JULIEN LE PAUVRE,75005,Paris 5e  Arrondissement,21-057987-1,2021-07-20T02:00:00+02:00,Restaurant,Satisfaisant,,Restaurant,48.852267,2.346841
1713,INDIAN NEPALI SWAD,4 RUE BARGUE,75015,Paris 15e  Arrondissement,21-059327-1,2021-07-20T02:00:00+02:00,Restaurant,Satisfaisant,,Restaurant,48.840626,2.306014
1716,JULIE DIS,96 RUE DE CRIMEE,75019,Paris 19e  Arrondissement,21-079880-1,2021-09-30T02:00:00+02:00,Rayon traiteur,Satisfaisant,,Rayon traiteur,48.883785,2.384775
1725,DELICES DE LOURMEL,"4, RUE VASCO DE GAMA",75015,Paris 15e  Arrondissement,21-027262-1,2021-04-01T02:00:00+02:00,Restaurant,Très satisfaisant,,Restaurant,48.837971,2.281548
1728,CRECHE LES PETITS TOURBILLONS,15 BIS RUE RENE GOSCINNY,75013,Paris 13e  Arrondissement,21-015732-1,2021-02-19T01:00:00+01:00,Restauration collective,Satisfaisant,,Restauration collective,48.830366,2.379476
1740,PLACE DES DIVAS,6 RUE SAINT VINCENT DE PAUL,75010,Paris 10e  Arrondissement,20-096805-1,2021-09-07T02:00:00+02:00,Restaurant,Satisfaisant,,Restaurant,48.879751,2.352235
1746,MOYAS,33 B BD DE CLICHY,75009,Paris 9e  Arrondissement,21-040269-1,2021-05-20T02:00:00+02:00,Libre service|Alimentation générale,Satisfaisant,,Libre service|Alimentation générale,48.882732,2.33542
1751,DIRECTION REGIONALE ET INTERDEPARTEMENTALE DE L'HEBERGEMENT ET DU LOGEMENT ILE-DE-FRANCE,5 RUE LEBLANC,75015,Paris 15e  Arrondissement,21-066381-1,2021-08-23T02:00:00+02:00,Restauration collective,Satisfaisant,,Restauration collective,48.840099,2.272089
1768,FEDERATION NATIONALE DES SYNDICATS D'EXPLOITATIONS AGRICOLES,11 RUE DE LA BAUME,75008,Paris 8e  Arrondissement,21-064040-1,2021-08-09T02:00:00+02:00,Restauration collective,Satisfaisant,,Restauration collective,48.874571,2.311667
1777,VIET PASSION SAS,72 RUE DE BELLEVILLE,75020,Paris 20e  Arrondissement,21-040450-1,2021-05-05T02:00:00+02:00,Restaurant,Satisfaisant,,Restaurant,48.873495,2.383751
1784,LA BROUETTE,185 RUE DU CHATEAU,75014,Paris 14e  Arrondissement,21-056010-1,2021-07-12T02:00:00+02:00,Restaurant,Satisfaisant,,Restaurant,48.833256,2.324297
1786,CARREFOUR MARKET,283 RUE LECOURBE,75015,Paris 15e  Arrondissement,21-016579-1,2021-02-26T01:00:00+01:00,Libre service,Très satisfaisant,,Libre service,48.838084,2.288325
1787,LE PARVIS,3 RUE D'ARCOLE,75004,Paris 4e  Arrondissement,21-045542-1,2021-06-10T02:00:00+02:00,Restaurant,Très satisfaisant,,Restaurant,48.8547,2.350156
1793,AIDE AUX ENFANTS PARALYSES,1 RUE DE LA CROIX SAINT FAUBIN,75011,Paris 11e  Arrondissement,21-068532-1,2021-08-30T02:00:00+02:00,Restauration collective,Satisfaisant,,Restauration collective,48.857499,2.386056
1796,PARIS SUD HOTEL,32 RUE DES PLANTES,75014,Paris 14e  Arrondissement,21-056048-1,2021-07-12T02:00:00+02:00,Restaurant,Très satisfaisant,,Restaurant,48.830346,2.323427
1798,BATIFOLLE,127 RUE CARDINET,75017,Paris 17e  Arrondissement,21-056067-1,2021-07-07T02:00:00+02:00,Restaurant,Très satisfaisant,,Restaurant,48.886305,2.312538
1799,SAS TARDIEU ELIE,35 Boulevard Haussman,75009,Paris 9e  Arrondissement,21-055961-1,2021-07-01T02:00:00+02:00,Glacier,Très satisfaisant,,Glacier,48.873198,2.330253
1800,INSTITUT ARTHUR VERNES,36 RUE D ASSAS,75006,Paris 6e  Arrondissement,21-055684-1,2021-07-12T02:00:00+02:00,Restauration collective,Très satisfaisant,,Restauration collective,48.847581,2.32965
1804,MAZEH BAH BAH,55 RUE DES ENTREPRENEURS,75015,Paris 15e  Arrondissement,21-081537-1,2021-10-08T02:00:00+02:00,Restaurant,Très satisfaisant,,Restaurant,48.845566,2.288382
1808,WATTELEZ RESTAURATION,35 RUE JOUFFROY D'ABBANS,75017,Paris 17e  Arrondissement,20-088655-1,2020-12-14T01:00:00+01:00,Restaurant,Satisfaisant,,Restaurant,48.88565,2.308905
1815,CREP'EAT,CENTRE COMMERCIAL FORUM DES HALLES 101 RUE BERGER - BP 109,75001,Paris 1er Arrondissement,21-040378-1,2021-05-25T02:00:00+02:00,Restaurant,Très satisfaisant,,Restaurant,48.861333,2.345914
1823,LE PETIT CABAS EPICERIE,189 RUE DE CHARONNE,75011,Paris 11e  Arrondissement,21-040438-1,2021-04-30T02:00:00+02:00,Restaurant,Très satisfaisant,,Restaurant,48.856212,2.393062
1824,VIALA GOURMET,8 RUE VIALA,75015,Paris 15e  Arrondissement,21-048188-1,2021-06-17T02:00:00+02:00,Restaurant,Satisfaisant,,Restaurant,48.850618,2.291523
1831,OGEC EXTERNAT ST HONORE D'EYLAU,66 AVENUE RAYMOND POINCARE,75016,Paris 16e  Arrondissement,20-083531-1,2020-12-01T01:00:00+01:00,Restauration collective,Satisfaisant,,Restauration collective,48.868085,2.285917
1835,CARREFOUR MARKET,283 RUE LECOURBE,75015,Paris 15e  Arrondissement,21-016566-1,2021-02-26T01:00:00+01:00,Libre service|Alimentation générale,Très satisfaisant,,Libre service|Alimentation générale,48.838084,2.288325
1845,CREPERIE KIGG,7 RUE JOSEPH DE MAISTRE,75018,Paris 18e  Arrondissement,21-085866-1,2021-08-24T02:00:00+02:00,Restaurant,Très satisfaisant,,Restaurant,48.885981,2.334158
1847,ECOLE ELEMENTAIRE,13 RUE VULPIAN,75013,Paris,21-065116-1,2021-08-17T02:00:00+02:00,Restauration collective,Satisfaisant,,Restauration collective,48.83154,2.34649
1848,IL GELATO DEL MARCHESI,35 Boulevard Haussman,75009,Paris 9e  Arrondissement,21-055948-1,2021-07-01T02:00:00+02:00,Boulangerie-Pâtisserie|Glacier,Très satisfaisant,,Boulangerie-Pâtisserie|Glacier,48.873198,2.330253
1850,LYCEE PROFESSIONNEL HECTOR GUIMARD,19 RUE CURIAL,75019,Paris 19e  Arrondissement,21-073024-1,2021-09-14T02:00:00+02:00,Restauration collective,Satisfaisant,,Restauration collective,48.892349,2.372551
1856,LYCEE PROFESSIONN CHENNEVIERE-MALEZIEUX,33 AVENUE LEDRU ROLLIN,75012,Paris 12e  Arrondissement,21-024935-1,2021-03-24T01:00:00+01:00,Restauration collective,Satisfaisant,,Restauration collective,48.84734,2.370177
1866,COLLEGE ELSA TRIOLET,9 RUE YEO THOMAS,75013,Paris 13e  Arrondissement,21-024921-1,2021-03-24T01:00:00+01:00,Restauration collective,Très satisfaisant,,Restauration collective,48.83141,2.362502
1868,LYCEE GENERAL BUFFON,16 BOULEVARD PASTEUR,75015,Paris 15e  Arrondissement,21-010676-1,2021-02-11T01:00:00+01:00,Restauration collective,Très satisfaisant,,Restauration collective,48.843458,2.311712
1870,ECOLE ELEMENTAIRE,2 RUE PAUL GERVAIS,75013,Paris,21-065117-1,2021-08-17T02:00:00+02:00,Restauration collective,Satisfaisant,,Restauration collective,48.83154,2.347512
1885,ISL DEVELOPPEMENT,1TER RUE NORVIN,75018,Paris 18e  Arrondissement,21-040544-1,2021-03-09T01:00:00+01:00,Boulangerie-Pâtisserie,Très satisfaisant,,Boulangerie-Pâtisserie,48.886846,2.340408
1895,LE ROYAL COUSCOUS,20 BOULEVARD PASTEUR,75015,Paris 15e  Arrondissement,21-013397-1,2021-02-16T01:00:00+01:00,Restaurant,Satisfaisant,,Restaurant,48.842667,2.312351
1904,FOND ASSUR FORMATION CH METIERS DE PARIS,74 RUE DE PICPUS,75012,Paris,20-086809-1,2020-12-09T01:00:00+01:00,Restauration collective,Satisfaisant,,Restauration collective,48.842187,2.397817
1909,HALTE GARDERIE LES PETITS SOLEILS,28 RUE BARON LEROY,75012,Paris 12e  Arrondissement,21-019676-1,2021-03-02T01:00:00+01:00,Restauration collective,Satisfaisant,,Restauration collective,48.834602,2.387916
1914,PIGZA,28 RUE DE DOUAI,75009,Paris 9e  Arrondissement,21-026567-1,2021-03-30T02:00:00+02:00,Restaurant,Très satisfaisant,,Restaurant,48.882531,2.332927
1920,HOTEL-  IBIS BASTILLE FAUBOURG SAINT ANTOINE,13 RUE TROUSSEAU,75011,Paris 11e  Arrondissement,21-083630-1,2021-10-14T02:00:00+02:00,Restaurant,Très satisfaisant,,Restaurant,48.851763,2.378745
1928,FOODOBAR,240 RUE DU FAUBOURG SAINT HONORE,75008,Paris 8e  Arrondissement,21-056125-1,2021-07-08T02:00:00+02:00,Restaurant,Satisfaisant,,Restaurant,48.876417,2.302186
1930,PARIS SUD,51 AVENUE D ITALIE,75013,Paris 13e  Arrondissement,21-016639-1,2021-02-23T01:00:00+01:00,Restaurant,Satisfaisant,,Restaurant,48.826945,2.357321
1935,ADAGIO,15 T RUE LAMBLARDIE,75012,Paris 12e  Arrondissement,21-056071-1,2021-07-08T02:00:00+02:00,Autres activités de remise directe,Satisfaisant,,,48.840491,2.397507
1942,SUPER DOMINIQUE,143 RUE SAINT-DOMINIQUE,75007,Paris 7e  Arrondissement,21-046310-1,2021-03-30T02:00:00+02:00,Boucherie-Charcuterie,Très satisfaisant,,Boucherie-Charcuterie,48.85797,2.301219
1955,TUTTI SENSI,48 RUE DU CHEVALIER DE LA BARRE,75018,Paris 18e  Arrondissement,21-040523-1,2021-03-09T01:00:00+01:00,Glacier,Très satisfaisant,,Glacier,48.887143,2.341709
1961,PAYSAN VRAC,158 RUE DE LA CONVENTION,75015,Paris 15e  Arrondissement,21-040524-1,2021-05-25T02:00:00+02:00,Libre service|Alimentation générale,Très satisfaisant,,Libre service|Alimentation générale,48.838864,2.292563
1964,COLLEGE ANDRE CITROEN,208 RUE SAINT CHARLES,75015,Paris 15e  Arrondissement,21-002646-1,2021-01-11T01:00:00+01:00,Restauration collective,Satisfaisant,,Restauration collective,48.838848,2.278581
1967,PONT NEUF CONCEPT,21 RUE DE LA MONNAIE,75001,Paris 1er Arrondissement,21-056161-1,2021-07-12T02:00:00+02:00,Restaurant,Très satisfaisant,,Restaurant,48.859612,2.343028
1971,BISTROT DU PASSAGE,14 PASSAGE GEFFROY DIDELOT,75017,Paris 17e  Arrondissement,21-083793-1,2021-10-14T02:00:00+02:00,Restaurant,Très satisfaisant,,Restaurant,48.882458,2.317203
1973,HOTEL CABANE,76 RUE RAYMOND LOSSERAND,75014,Paris 14e  Arrondissement,21-040577-1,2021-05-26T02:00:00+02:00,Restaurant,Satisfaisant,,Restaurant,48.833741,2.317621
1976,KIDDIES BESLAY,19 PASSAGE BESLAY,75011,Paris 11e  Arrondissement,20-088822-1,2020-12-11T01:00:00+01:00,Restauration collective,Satisfaisant,,Restauration collective,48.863744,2.374804
1985,LE MONDIAL,12 RUE AUBER,75009,Paris 9e  Arrondissement,21-010723-1,2021-02-10T01:00:00+01:00,Restaurant,Satisfaisant,,Restaurant,48.872833,2.328972
1999,VAUGIRARD DISTRIBUTION,79 B RUE DE VAUGIRARD,75006,Paris 6e  Arrondissement,21-059165-1,2021-04-28T02:00:00+02:00,Libre service,Très satisfaisant,,Libre service,48.84614,2.324014
2009,SUPER DOMINIQUE,143 RUE SAINT-DOMINIQUE,75007,Paris 7e  Arrondissement,21-046306-1,2021-03-30T02:00:00+02:00,Libre service,Très satisfaisant,,Libre service,48.85797,2.301219
2013,DEGRET FILIPOVIC,15 RUE JULES CESAR,75012,Paris 12e  Arrondissement,21-056117-1,2021-07-09T02:00:00+02:00,Autres activités de remise directe,Satisfaisant,,,48.849,2.370051
2016,MARCEL,110 RUE CAULAINCOURT,75018,Paris 18e  Arrondissement,21-056162-1,2021-07-12T02:00:00+02:00,Restaurant,Très satisfaisant,,Restaurant,48.889624,2.341175
2023,POKAWA NANTES,8 VLA POIRIER,75015,Paris 15e  Arrondissement,21-062216-1,2021-07-23T02:00:00+02:00,Restaurant,Satisfaisant,,Restaurant,48.844106,2.304098
2026,VAUGIRARD DISTRIBUTION,79 B RUE DE VAUGIRARD,75006,Paris 6e  Arrondissement,21-059178-1,2021-04-28T02:00:00+02:00,Boulangerie-Pâtisserie,Très satisfaisant,,Boulangerie-Pâtisserie,48.84614,2.324014
2041,QUADRATURE RESTAURATION,54 BOULEVARD RASPAIL,75006,Paris 6e  Arrondissement,21-037273-1,2021-05-10T02:00:00+02:00,Restauration collective,Satisfaisant,,Restauration collective,48.850373,2.327013
2061,PARADIS DE SUSHI,77 Quai de la Seine,75019,Paris 19e  Arrondissement,20-093313-1,2020-12-18T01:00:00+01:00,Restaurant,Satisfaisant,,Restaurant,48.888462,2.378007
2075,LE PETIT CAPUCCI,21 RUE JOUBERT,75009,Paris 9e  Arrondissement,21-035216-1,2021-05-04T02:00:00+02:00,Restaurant,Satisfaisant,,Restaurant,48.874589,2.330894
2088,IL GRIGIO,147 RUE SAINT-DOMINIQUE,75007,Paris 7e  Arrondissement,21-000509-1,2021-01-05T01:00:00+01:00,Restaurant,Très satisfaisant,,Restaurant,48.857762,2.300641
2094,MADD LAMARCK,74 RUE LAMARCK,75018,Paris 18e  Arrondissement,21-056230-1,2021-07-12T02:00:00+02:00,Restaurant,Satisfaisant,,Restaurant,48.890024,2.338629
2103,SANTA MONICA,15 RUE HENRI RIBIERE,75019,Paris 19e  Arrondissement,21-013461-1,2021-02-12T01:00:00+01:00,Restaurant,Satisfaisant,,Restaurant,48.877158,2.395414
2123,GALBAR,50 RUE DU FBG POISSONNIERE,75010,Paris 10e  Arrondissement,21-061640-1,2021-07-13T02:00:00+02:00,Restaurant,Satisfaisant,,Restaurant,48.874449,2.348081
2125,XIANG RUI,11 RUE SIMART,75018,Paris 18e  Arrondissement,21-025846-1,2021-03-24T01:00:00+01:00,Restaurant,Satisfaisant,,Restaurant,48.890161,2.348699
2137,COJEAN SAS,27 AV HOCHE,75008,Paris 8e  Arrondissement,21-056487-1,2021-07-09T02:00:00+02:00,Restaurant,Très satisfaisant,,Restaurant,48.876354,2.301703
2151,LYCEE PROFESSIONNEL SUZANNE VALADON,"7, RUE FERDINAND FLOCON",75018,Paris 18e  Arrondissement,20-086615-1,2020-12-09T01:00:00+01:00,Restauration collective,Satisfaisant,,Restauration collective,48.891889,2.346029
2153,LE BARRICOU,1 BD DU TEMPLE,75003,Paris 3e  Arrondissement,21-040649-1,2021-05-26T02:00:00+02:00,Restaurant,Satisfaisant,,Restaurant,48.864203,2.359196
2156,CAFE DAUPHINE,17 RUE DAUPHINE,75006,Paris 6e  Arrondissement,21-083278-1,2021-10-14T02:00:00+02:00,Restaurant,Satisfaisant,,Restaurant,48.855427,2.340038
2171,ESPACE EUGENE,17 PL DU TERTRE,75018,Paris 18e  Arrondissement,21-056459-1,2021-07-12T02:00:00+02:00,Restaurant,Satisfaisant,,Restaurant,48.886583,2.340547
2172,ADAM,47 RUE MONSIEUR LE PRINCE,75006,Paris 6e  Arrondissement,21-070363-1,2021-06-04T02:00:00+02:00,Alimentation générale,Satisfaisant,,Alimentation générale,48.849439,2.340282
2177,JBLER,229 RUE DU FAUBOURG SAINT HONORE,75008,Paris 8e  Arrondissement,21-056463-1,2021-07-09T02:00:00+02:00,Restaurant,Très satisfaisant,,Restaurant,48.877277,2.299444
2178,YUMMY ASIAN FOOD,8 RUE DU HUIT MAI 1945,75010,Paris 10e  Arrondissement,21-027510-1,2021-04-06T02:00:00+02:00,Restaurant,Très satisfaisant,,Restaurant,48.876422,2.357152
2184,YOU TEK HENG,56 AVENUE DE FLANDRE,75019,Paris 19e  Arrondissement,21-016243-1,2021-02-22T01:00:00+01:00,Restaurant,Très satisfaisant,,Restaurant,48.887919,2.373655
2186,BZ FOOD,282 RUE LECOURBE,75015,Paris 15e  Arrondissement,21-040668-1,2021-05-25T02:00:00+02:00,Restaurant,Très satisfaisant,,Restaurant,48.838313,2.288096
2191,CHEZ BARTOLO,7 RUE DES CANETTES,75006,Paris 6e  Arrondissement,21-057817-1,2021-07-19T02:00:00+02:00,Restaurant,Satisfaisant,,Restaurant,48.852396,2.33379
2192,DRAGON D'OR,110 RUE DE BELLEVILLE,75020,Paris 20e  Arrondissement,21-025026-1,2021-03-16T01:00:00+01:00,Restaurant,Satisfaisant,,Restaurant,48.874591,2.387223
2193,THAI FACTORY,42 RUE DE MENILMONTANT,75020,Paris 20e  Arrondissement,21-060944-1,2021-07-20T02:00:00+02:00,Restaurant,Satisfaisant,,Restaurant,48.867921,2.386914
2198,NOVE,9 RUE DE CHARONNE,75011,Paris 11e  Arrondissement,21-023680-1,2021-03-16T01:00:00+01:00,Restaurant,Satisfaisant,,Restaurant,48.852564,2.374172
2200,MUCHOU,99 RUE BEAUBOURG,75003,Paris 3e  Arrondissement,21-002650-1,2021-01-08T01:00:00+01:00,Restaurant,Satisfaisant,,Restaurant,48.864632,2.355154
2204,CARREFOUR CITY,22 AVENUE HOCHE,75008,Paris 8e  Arrondissement,21-056508-1,2021-07-09T02:00:00+02:00,Libre service,Très satisfaisant,,Libre service,48.876277,2.300551
2205,L'IMPOND,320 RUE DES PYRENEES,75020,Paris 20e  Arrondissement,21-056442-1,2021-06-23T02:00:00+02:00,Restaurant,Satisfaisant,,Restaurant,48.87236,2.387125
2206,BISTRO REGENT,19 RUE DE CHATEAUDUN,75009,Paris 9e  Arrondissement,21-086422-1,2021-10-21T02:00:00+02:00,Restaurant,Très satisfaisant,,Restaurant,48.875853,2.338959
2211,BHN13,9 RUE MICHEL PETER,75013,Paris 13e  Arrondissement,21-052757-1,2021-06-28T02:00:00+02:00,Restaurant,Satisfaisant,,Restaurant,48.836558,2.353566
2216,BAGELSTEIN,8 AVENUE CARNOT,75017,Paris 17e  Arrondissement,21-002832-1,2021-01-11T01:00:00+01:00,Restaurant,Très satisfaisant,,Restaurant,48.875505,2.293814
2223,LE COMPTOIR DUHESME,60 RUE DUHESME,75018,Paris 18e  Arrondissement,21-056498-1,2021-04-16T02:00:00+02:00,Boulangerie-Pâtisserie,Satisfaisant,,Boulangerie-Pâtisserie,48.893097,2.342441
2226,ECOLE POLYVALENTE,3 IMPASSE DES BELLES FEUILLES,75016,Paris 16e  Arrondissement,21-034442-1,2021-04-30T02:00:00+02:00,Restauration collective,Satisfaisant,75116059,Restauration collective,48.868836,2.280778
2232,CLERODIS,163 RUE DE GRENELLE,75007,Paris 7e  Arrondissement,20-093639-1,2020-12-03T01:00:00+01:00,Libre service,Très satisfaisant,,Libre service,48.857674,2.306178
2239,BISTRO INDOCHINE,49 RUE DE DANTZIG,75015,Paris 15e  Arrondissement,21-084111-1,2021-10-15T02:00:00+02:00,Restaurant,A améliorer,,Restaurant,48.83077,2.29646
2240,MIYAM POTEAU,11 RUE DU POTEAU,75018,Paris 18e  Arrondissement,21-056478-1,2021-04-16T02:00:00+02:00,Libre service,Très satisfaisant,,Libre service,48.893157,2.342924
2261,LE PRESTIGE,173 BD LEFEBVRE,75015,Paris 15e  Arrondissement,21-034316-1,2021-04-29T02:00:00+02:00,Restaurant,Très satisfaisant,,Restaurant,48.828618,2.302071
2280,MIA,137 BOULEVARD DE L'HOPITAL,75013,Paris 13e  Arrondissement,21-037091-1,2021-05-10T02:00:00+02:00,Restaurant,Satisfaisant,,Restaurant,48.834884,2.358379
2303,TABRIZALE,19 PLACE DE LA REPUBLIQUE,75003,Paris 3e  Arrondissement,21-032333-1,2021-04-23T02:00:00+02:00,Restaurant,Très satisfaisant,,Restaurant,48.867622,2.362397
2306,LA PALETTE,43 Rue de Seine,75006,Paris 6e  Arrondissement,21-090450-1,2021-11-08T01:00:00+01:00,Restaurant,Satisfaisant,,Restaurant,48.855421,2.336824
2322,DAILY SYRIEN,12 RUE DES PETITES ECURIES,75010,Paris 10e  Arrondissement,20-084011-1,2020-12-01T01:00:00+01:00,Restaurant,Satisfaisant,,Restaurant,48.873333,2.353
2332,ARJI 15,44 AV FELIX FAURE,75015,Paris 15e  Arrondissement,21-056826-1,2021-07-13T02:00:00+02:00,Restaurant,Satisfaisant,,Restaurant,48.841269,2.288029
2334,LE PESCHADOIRES,163 RUE LECOURBE,75015,Paris 15e  Arrondissement,21-060641-1,2021-07-29T02:00:00+02:00,Restaurant,Très satisfaisant,,Restaurant,48.841255,2.298404
2337,LA VIE CLAIRE,121 BOULEVARD DE SEBASTOPOL,75002,Paris 2e  Arrondissement,20-089292-1,2020-12-15T01:00:00+01:00,Libre service,Très satisfaisant,,Libre service,48.867553,2.353034
2338,BOUCHERIE MONTMARTROISE AUX FINS GOURMETS,3 RUE RAMEY,75018,Paris 18e  Arrondissement,21-016574-1,2021-01-07T01:00:00+01:00,Boucherie-Charcuterie,Très satisfaisant,,Boucherie-Charcuterie,48.887135,2.34739
2343,PASSION CHOCOLAT,122 AV SIMON BOLIVAR,75019,Paris 19e  Arrondissement,20-089277-1,2020-12-08T01:00:00+01:00,Chocolatier,Très satisfaisant,,Chocolatier,48.880329,2.374348
2344,GRUPPOMIMO,61 RUE LEGENDRE,75017,Paris 17e  Arrondissement,21-056855-1,2021-07-12T02:00:00+02:00,Restaurant,Satisfaisant,,Restaurant,48.886155,2.317509
2347,LE BRIO,216 RUE MARCADET,75018,Paris 18e  Arrondissement,21-058736-1,2021-07-21T02:00:00+02:00,Restaurant,Satisfaisant,,Restaurant,48.891954,2.333356
2350,LE COMMERCE,301 RUE DE VAUGIRARD,75015,Paris 15e  Arrondissement,21-088920-1,2021-10-22T02:00:00+02:00,Restaurant,Très satisfaisant,,Restaurant,48.838985,2.300028
2353,CAFE AVENUE,42 RUE BALARD,75015,Paris 15e  Arrondissement,20-089481-1,2020-12-15T01:00:00+01:00,Restaurant,Très satisfaisant,,Restaurant,48.84211,2.27753
2364,MAISON SAUVAGE,5 PL VICTOR HUGO,75016,Paris 16e  Arrondissement,21-040875-1,2021-05-27T02:00:00+02:00,Restaurant,Très satisfaisant,,Restaurant,48.869275,2.285698
2365,LE DELLY'S,188 Boulevard de la Villette,75019,Paris 19e  Arrondissement,21-062098-1,2021-07-01T02:00:00+02:00,Restaurant,Satisfaisant,,Restaurant,48.881764,2.370539
2366,DELICES NOVA,4 RUE LUCIEN SAMPAIX,75010,Paris 10e  Arrondissement,21-088926-1,2021-11-02T01:00:00+01:00,Restaurant,A améliorer,,Restaurant,48.870838,2.359877
2377,L'INSTANT,16 RUE JOUFFROY D'ABBANS,75017,Paris 17e  Arrondissement,21-058412-1,2021-07-20T02:00:00+02:00,Restaurant,Très satisfaisant,,Restaurant,48.886847,2.311995
2383,MAISON MULOT,76 RUE DE SEINE,75006,Paris 6e  Arrondissement,21-058333-1,2021-04-22T02:00:00+02:00,Boulangerie-Pâtisserie,Satisfaisant,,Boulangerie-Pâtisserie,48.851941,2.336951
2392,APMT,47 RUE BALARD,75015,Paris 15e  Arrondissement,20-089501-1,2020-12-15T01:00:00+01:00,Libre service|Alimentation générale,Très satisfaisant,,Libre service|Alimentation générale,48.841885,2.277876
2393,L'ARC EN CIEL,49 RUE TOLBIAC,75013,Paris 13e  Arrondissement,21-085341-1,2021-10-19T02:00:00+02:00,Restaurant,Satisfaisant,,Restaurant,48.827527,2.371088
2398,TABAC LE WASHINGTON,27 RUE WASHINGTON,75008,Paris 8e  Arrondissement,21-070761-1,2021-09-07T02:00:00+02:00,Restaurant,Satisfaisant,,Restaurant,48.873418,2.303305
2405,BABOUNE TEMPLE,,75003,Paris 3e  Arrondissement,21-026685-1,2021-03-31T02:00:00+02:00,Restauration collective,Satisfaisant,,Restauration collective,48.845,2.3752
2409,LE VINGTIEME,82 Rue Belgrand,75020,Paris 20e  Arrondissement,21-082861-1,2021-10-12T02:00:00+02:00,Restaurant,Satisfaisant,,Restaurant,48.864487,2.408181
2416,FRESCOLET,42 RUE JEAN BAPTISTE PIGALLE,75009,Paris 9e  Arrondissement,21-010555-1,2021-02-04T01:00:00+01:00,Alimentation générale,Très satisfaisant,,Alimentation générale,48.880065,2.334634
2420,LE PETIT SAINT MARTIN,90 RUE DU FAUBOURG SAINT MARTIN,75010,Paris 10e  Arrondissement,21-079863-1,2021-10-05T02:00:00+02:00,Restaurant,Satisfaisant,,Restaurant,48.872835,2.35795
2421,LE CABANON,75 PLACE DOCTEUR FELIX LOBLIGEOIS,75017,Paris 17e  Arrondissement,21-056844-1,2021-07-12T02:00:00+02:00,Restaurant,Satisfaisant,,Restaurant,48.886667,2.317365
2422,LE PALAIS OTTOMAN,7 AV DE CLICHY,75017,Paris 17e  Arrondissement,20-089601-1,2020-12-16T01:00:00+01:00,Restaurant,Satisfaisant,,Restaurant,48.8843,2.32689
2425,CHEZ TOFE,6 AVENUE CORENTIN CARIOU,75019,Paris 19e  Arrondissement,21-044433-1,2021-05-31T02:00:00+02:00,Restaurant,Très satisfaisant,,Restaurant,48.894879,2.382791
2426,ZEN BO BUN,31 RUE SAINT LAZARE,75009,Paris 9e  Arrondissement,21-040976-1,2021-05-27T02:00:00+02:00,Restaurant,Satisfaisant,,Restaurant,48.87671,2.336139
2431,KINTARO,24 RUE SAINT-AUGUSTIN,75002,Paris 2e  Arrondissement,21-038473-1,2021-05-18T02:00:00+02:00,Restaurant,A améliorer,,Restaurant,48.868934,2.334875
2434,RIMAPILOU,26 AVENUE DE TOURVILLE,75007,Paris 7e  Arrondissement,21-045658-1,2021-06-10T02:00:00+02:00,Restaurant,Très satisfaisant,,Restaurant,48.85427,2.306739
2441,MARIANA,"MARCHE DES ENFANTS ROUGES 39, RUE DE BRETAGNE",75003,Paris 3e  Arrondissement,20-089576-1,2020-12-15T01:00:00+01:00,Restaurant,Satisfaisant,,Restaurant,48.862954,2.362155
2443,LEADER PRICE EXPRESS,6 RUE DU PIC DE BARRETTE,75015,Paris 15e  Arrondissement,20-089581-1,2020-12-15T01:00:00+01:00,Libre service,Satisfaisant,,Libre service,48.842108,2.277207
2444,TORITCHO,47 RUE DU MONTPARNASSE,75014,Paris 14e  Arrondissement,20-091590-1,2020-12-16T01:00:00+01:00,Restaurant,Satisfaisant,,Restaurant,48.842439,2.325972
2447,LE REFUGE,RUE FONTAINE DU BUT,75018,Paris 18e  Arrondissement,21-056832-1,2021-07-12T02:00:00+02:00,Restaurant,Satisfaisant,,Restaurant,48.890558,2.339204
2458,ERIC KAYSER,57 BD DE COURCELLES,75008,Paris 8e  Arrondissement,21-015667-1,2021-02-23T01:00:00+01:00,Restaurant,Très satisfaisant,,Restaurant,48.877227,2.306651
2462,"HOTEL TERMINUS ORLEANS ""ZONE PETIT-DEJEUNER""",197 BOULEVARD BRUNE,75014,Paris 14e  Arrondissement,21-077274-1,2021-09-27T02:00:00+02:00,Restaurant,Très satisfaisant,,Restaurant,48.823596,2.324759
2467,PEOPLE AND BABY,33 RUE VERNET,75008,Paris 8e  Arrondissement,21-040959-1,2021-05-27T02:00:00+02:00,Restauration collective,Satisfaisant,,Restauration collective,48.872127,2.297447
2476,LEADER PRICE EXPRESS,6 RUE DU PIC DE BARRETTE,75015,Paris 15e  Arrondissement,20-089636-1,2020-12-15T01:00:00+01:00,Rayon pain/viennoiserie/pâtisserie,Satisfaisant,,Rayon pain/viennoiserie/pâtisserie,48.842108,2.277207
2478,EUROP MAG,93 RUE DE LA CHAPELLE,75018,Paris 18e  Arrondissement,21-076778-1,2021-07-19T02:00:00+02:00,Libre service|Alimentation générale,Très satisfaisant,,Libre service|Alimentation générale,48.897995,2.358659
2480,YUSHI 16,70 RUE DE LONGCHAMP,75016,Paris 16e  Arrondissement,21-008375-1,2021-02-02T01:00:00+01:00,Restaurant,Satisfaisant,,Restaurant,48.865269,2.285535
2483,LE TRAITEUR DU BOIS LE VENT,63 RUE BOULAINVILLIERS,75016,Paris 16e  Arrondissement,21-027675-1,2021-03-30T02:00:00+02:00,Restaurant,Satisfaisant,,Restaurant,48.857804,2.27468
2487,AUX 3 PRESIDENTS,2 RUE DU GENERAL ALAIN DE BOISSIEU,75015,Paris 15e  Arrondissement,21-056959-1,2021-07-15T02:00:00+02:00,Restaurant,Satisfaisant,,Restaurant,48.836657,2.273866
2494,LA BOCCA DELLA VERITA,2 RUE DU SABOT,75006,Paris 6e  Arrondissement,21-026522-1,2021-03-30T02:00:00+02:00,Restaurant,Très satisfaisant,,Restaurant,48.853014,2.331332
2502,LE JOUY,3 RUE BORDA,75003,Paris 3e  Arrondissement,21-056971-1,2021-07-15T02:00:00+02:00,Restaurant,Satisfaisant,,Restaurant,48.866105,2.357288
2504,BURGER MAISON 78,78 RUE DE BELLEVILLE,75020,Paris 20e  Arrondissement,21-073067-1,2021-09-15T02:00:00+02:00,Restaurant,A améliorer,,Restaurant,48.873546,2.384153
2506,BEERUS & CHAMPA,83 RUE LEBLANC,75015,Paris 15e  Arrondissement,21-057081-1,2021-07-15T02:00:00+02:00,Restaurant,Satisfaisant,,Restaurant,48.837068,2.27791
2507,CHRISTINE,4BIS RUE PARROT,75012,Paris 12e  Arrondissement,21-066935-1,2021-08-19T02:00:00+02:00,Restaurant,Satisfaisant,,Restaurant,48.846912,2.373734
2508,L'INSTANT LIBANAIS,45 RUE DESCARTES,75005,Paris 5e  Arrondissement,21-041090-1,2021-05-27T02:00:00+02:00,Restaurant,Satisfaisant,,Restaurant,48.845276,2.34918
2514,15 PIZZA,395 RUE DE VAUGIRARD,75015,Paris 15e  Arrondissement,21-007490-1,2021-01-28T01:00:00+01:00,Restaurant,Très satisfaisant,,Restaurant,48.833936,2.290452
2517,COUSCOOK,36 BD MALESHERBES,75008,Paris 8e  Arrondissement,21-040685-1,2021-05-21T02:00:00+02:00,Restaurant,Satisfaisant,,Restaurant,48.873961,2.320776
2520,GROUPE HOSPITAL PERINE-LAGACHE,"11 Rue Chardon Lagache,",75015,Paris 15e  Arrondissement,21-053129-1,2021-06-16T02:00:00+02:00,Restauration collective,Satisfaisant,,Restauration collective,48.843365,2.265
2521,MAMA SHELTER,109 Rue de Bagnolet,75020,Paris 20e  Arrondissement,21-054476-1,2021-06-29T02:00:00+02:00,Restaurant,Satisfaisant,,Restaurant,48.859637,2.402858
2524,DIDIM 2,43 RUE DE CLIGNANCOURT,75018,Paris 18e  Arrondissement,21-072046-1,2021-06-09T02:00:00+02:00,Restaurant,Satisfaisant,,Restaurant,48.886435,2.347451
2531,ALLAN . A,81 RUE DE LA VICTOIRE,75009,Paris 9e  Arrondissement,21-068780-1,2021-08-31T02:00:00+02:00,Restaurant,Satisfaisant,,Restaurant,48.875096,2.331886
2533,LE MATHURIN,16 B RUE DES MARAICHERS,75020,Paris 20e  Arrondissement,21-057209-1,2021-06-29T02:00:00+02:00,Restaurant,Satisfaisant,,Restaurant,48.848779,2.407909
2536,MAI LAM SAIGON,130 RUE DE TOLBIAC,75013,Paris 13e  Arrondissement,21-057984-1,2021-07-20T02:00:00+02:00,Restaurant,Très satisfaisant,,Restaurant,48.826258,2.358853
2555,LE VIEUX BELLEVILLE,12 RUE DES ENVIERGES,75020,Paris 20e  Arrondissement,21-073081-1,2021-09-15T02:00:00+02:00,Restaurant,A améliorer,,Restaurant,48.871677,2.386376
2575,CAFE PIERRE,202 RUE DU FBG SAINT ANTOINE,75012,Paris 12e  Arrondissement,21-066944-1,2021-08-23T02:00:00+02:00,Restaurant,Très satisfaisant,,Restaurant,48.849861,2.385342
2592,BOCAMEXA,84 RUE DU FAUBOURG SAINT DENIS,75010,Paris 10e  Arrondissement,21-088589-1,2021-10-29T02:00:00+02:00,Restaurant,Satisfaisant,,Restaurant,48.87374,2.355105
2594,OH PUREE !,8 RUE TOURNEFORT,75005,Paris 5e  Arrondissement,21-057094-1,2021-07-15T02:00:00+02:00,Restaurant,Satisfaisant,,Restaurant,48.844001,2.348036
2612,CLINT,18 AV LEDRU ROLLIN,75012,Paris 12e  Arrondissement,21-057074-1,2021-07-15T02:00:00+02:00,Restaurant,Satisfaisant,,Restaurant,48.846459,2.369053
2621,LES ENFANTS DU MARCHE,"MARCHE DES ENFANTS ROUGES 39, RUE DE BRETAGNE",75003,Paris 3e  Arrondissement,20-089691-1,2020-12-15T01:00:00+01:00,Restaurant,Très satisfaisant,,Restaurant,48.862954,2.362155
2626,AZAR,23 RUE MOUFFETARD,75005,Paris 5e  Arrondissement,20-089840-1,2020-12-17T01:00:00+01:00,Restaurant,Satisfaisant,,Restaurant,48.844157,2.34938
2627,AUTOUR DU YANGSTE,12 RUE DU HELDER,75009,Paris 9e  Arrondissement,21-007387-1,2021-01-28T01:00:00+01:00,Restaurant,Satisfaisant,,Restaurant,48.872035,2.33507
2631,LES PERES SIFFLEURS,15 RUE GERBERT,75015,Paris 15e  Arrondissement,21-093835-1,2021-11-18T01:00:00+01:00,Restaurant,Très satisfaisant,,Restaurant,48.839345,2.29886
2638,LX FOOD,33 RUE DES PYRENEES,75020,Paris 20e  Arrondissement,21-057245-1,2021-06-29T02:00:00+02:00,Restaurant,Satisfaisant,,Restaurant,48.849931,2.40626
2641,GOURMANDISE DUHESME,15 RUE DU POTEAU,75018,Paris 18e  Arrondissement,21-058280-1,2021-07-19T02:00:00+02:00,Restaurant,Très satisfaisant,,Restaurant,48.893448,2.342405
2645,PAN VIET,55 RUE AU MAIRE,75003,Paris 3e  Arrondissement,21-058844-1,2021-07-22T02:00:00+02:00,Restaurant,Très satisfaisant,,Restaurant,48.864926,2.354741
2649,MA DOUCE SOEUR,2 RUE BOUILLOUX LAFONT,75015,Paris 15e  Arrondissement,21-057113-1,2021-07-15T02:00:00+02:00,Restaurant,Très satisfaisant,,Restaurant,48.837235,2.279729
2657,O'SUSHI,187 AVENUE JEAN JAURES,75019,Paris 19e  Arrondissement,20-093303-1,2020-12-14T01:00:00+01:00,Restaurant,Satisfaisant,,Restaurant,48.88813,2.389317
2661,LE BOSPHORE,109 AVENUE D ITALIE,75013,Paris 13e  Arrondissement,21-072860-1,2021-09-14T02:00:00+02:00,Restaurant,Satisfaisant,,Restaurant,48.822463,2.358715
2666,WUNDERBAR,16 RUE BEAUREPAIRE,75010,Paris 10e  Arrondissement,20-089020-1,2020-12-15T01:00:00+01:00,Restaurant,Satisfaisant,,Restaurant,48.870275,2.363926
2670,UNDERGROUND COFFEE,12 AV LEDRU ROLLIN,75012,Paris 12e  Arrondissement,21-057092-1,2021-07-15T02:00:00+02:00,Restaurant,Satisfaisant,,Restaurant,48.846225,2.36864
2677,LE CAFE LUX,73 RUE SAINT MAUR,75011,Paris 11e  Arrondissement,21-069587-1,2021-09-02T02:00:00+02:00,Restaurant,Satisfaisant,,Restaurant,48.86334,2.3789
2682,MAMA SHELTER,109 Rue de Bagnolet,75020,Paris 20e  Arrondissement,21-054469-1,2021-06-22T02:00:00+02:00,Restaurant,Satisfaisant,,Restaurant,48.859637,2.402858
2688,LOLLY'S,PTE LESCOT,75001,Paris 1er Arrondissement,20-089709-1,2020-12-16T01:00:00+01:00,Libre service|Alimentation générale,Très satisfaisant,,Libre service|Alimentation générale,48.862383,2.348379
2691,MAMA SHELTER,109 Rue de Bagnolet,75020,Paris 20e  Arrondissement,21-054502-1,2021-06-22T02:00:00+02:00,Restaurant,Satisfaisant,,Restaurant,48.859637,2.402858
2696,SARL ROYAL BAR,34 RUE DE LA CHARBONNIERE,75018,Paris 18e  Arrondissement,21-057234-1,2021-04-20T02:00:00+02:00,Restaurant,Satisfaisant,,Restaurant,48.884248,2.352281
2699,LES GOURMETS DES TERNES,"87, BOULEVARD DE COURCELLES",75008,Paris 8e  Arrondissement,21-094126-1,2021-11-19T01:00:00+01:00,Restaurant,Très satisfaisant,,Restaurant,48.878155,2.299333
2706,PDP WAGRAM,PDP WAGRAM,75008,Paris 8e  Arrondissement,21-056421-1,2021-07-09T02:00:00+02:00,Restaurant,Très satisfaisant,,Restaurant,48.876244,2.297131
2708,LA SUITE,1 RUE CAPLAT,75018,Paris 18e  Arrondissement,21-057200-1,2021-04-20T02:00:00+02:00,Restaurant,Satisfaisant,,Restaurant,48.884352,2.352303
2711,DIDEROT MAZAS,13 RUE AUDUBON,75012,Paris 12e  Arrondissement,21-003872-1,2021-01-14T01:00:00+01:00,Restauration collective,Satisfaisant,,Restauration collective,48.845867,2.370043
2713,SUSHI GOURMET PARIS OPERA,21 AV DE L OPERA,75001,Paris 1er Arrondissement,21-057298-1,2021-07-16T02:00:00+02:00,Restaurant,Très satisfaisant,,Restaurant,48.866496,2.333865
2716,HAJ ABOUDA JAMEL,5 RUE NOTRE DAME DES CHAMPS,75006,Paris 6e  Arrondissement,21-040097-1,2021-03-04T01:00:00+01:00,Libre service|Alimentation générale,Très satisfaisant,,Libre service|Alimentation générale,48.84673,2.327256
2719,PETIT SOHAIL,64 RUE SAINT DENIS,75001,Paris 1er Arrondissement,21-069006-1,2021-09-01T02:00:00+02:00,Restaurant,Très satisfaisant,,Restaurant,48.861539,2.349144
2721,KONOHA,86 B RUE RIQUET,75018,Paris 18e  Arrondissement,21-062289-1,2021-08-04T02:00:00+02:00,Restaurant,Satisfaisant,,Restaurant,48.890047,2.362243
2744,LE TIMGAD,"21, RUE BRUNEL",75017,Paris 17e  Arrondissement,21-083660-1,2021-10-12T02:00:00+02:00,Restaurant,Satisfaisant,,Restaurant,48.877562,2.288173
2746,LTW FOOD,84 RUE DE LA CHAPELLE,75018,Paris 18e  Arrondissement,21-041510-1,2021-05-28T02:00:00+02:00,Restaurant,Très satisfaisant,,Restaurant,48.89645,2.359716
2749,TONTON DES DAMES,94 RUE DES DAMES,75017,Paris 17e  Arrondissement,21-089021-1,2021-11-02T01:00:00+01:00,Restaurant,Satisfaisant,,Restaurant,48.88293,2.317731
2755,MONOPRIX,52 RUE FONTAINE,75009,Paris 9e  Arrondissement,21-043903-1,2021-06-01T02:00:00+02:00,Libre service,Très satisfaisant,,Libre service,48.883413,2.332832
2756,SABBAH,173 AVENUE DE FLANDRE,75019,Paris 19e  Arrondissement,21-075283-1,2021-09-21T02:00:00+02:00,Alimentation générale,Satisfaisant,,Alimentation générale,48.8946,2.381526
2760,L'HYPOTHESE,41 RUE DE VAUGIRARD,75006,Paris 6e  Arrondissement,21-060390-1,2021-07-28T02:00:00+02:00,Restaurant,Satisfaisant,,Restaurant,48.847856,2.329931
2764,SQUARE GARDETTE,24 RUE SAINT AMBROISE,75011,Paris 11e  Arrondissement,21-041522-1,2021-05-20T02:00:00+02:00,Restaurant,Très satisfaisant,,Restaurant,48.862646,2.378584
2773,NEW JIOKO,324- 326 RUE DE BELLEVILLE,75020,Paris 20e  Arrondissement,21-022930-1,2021-03-02T01:00:00+01:00,Restaurant,Satisfaisant,,Restaurant,48.876883,2.405876
2780,CAVE BEAUVAU,CAVEE BEAUVAU,75008,Paris 8e  Arrondissement,21-041507-1,2021-05-28T02:00:00+02:00,Restaurant,Satisfaisant,,Restaurant,48.87127,2.316466
2785,CAFE REY BASTILLE,1RUE DU FAUBOURG SAINT ANTOINE,75011,Paris 11e  Arrondissement,21-048461-1,2021-06-02T02:00:00+02:00,Restaurant,Très satisfaisant,,Restaurant,48.85053,2.382285
2795,SAYURI,118 RUE LECOURBE,75015,Paris 15e  Arrondissement,21-048713-1,2021-06-18T02:00:00+02:00,Alimentation générale,Très satisfaisant,,Alimentation générale,48.842533,2.302062
2800,PHO 2,17 RUE JOUFFROY D'ABBANS,75017,Paris 17e  Arrondissement,21-092652-1,2021-11-17T01:00:00+01:00,Restaurant,Satisfaisant,,Restaurant,48.886497,2.311579
2804,MIAN FAN,20 RUE DE MOGADOR,75009,Paris 9e  Arrondissement,21-066000-1,2021-08-19T02:00:00+02:00,Restaurant,Satisfaisant,,Restaurant,48.874769,2.331472
2808,LAOUZ,20 RUE DAUPHINE,75006,Paris 6e  Arrondissement,21-041435-1,2021-03-11T01:00:00+01:00,Restaurant,Satisfaisant,,Restaurant,48.855245,2.339681
2812,FRANPRIX,12 RUE SEVESTE,75018,Paris 18e  Arrondissement,21-064930-1,2021-05-19T02:00:00+02:00,Rayon traiteur,Très satisfaisant,,Rayon traiteur,48.884054,2.344512
2816,CHEZ GASTON,112 BD RICHARD LENOIR,75011,Paris 11e  Arrondissement,21-077870-1,2021-09-27T02:00:00+02:00,Restaurant,Satisfaisant,,Restaurant,48.864314,2.371164
2817,PRINTANIA ELYSEE,39 RUE MARBEUF,75008,Paris 8e  Arrondissement,21-048408-1,2021-06-18T02:00:00+02:00,Restaurant,Très satisfaisant,,Restaurant,48.869741,2.30546
2822,NOUILLES DE JIANGNAN,21 RUE MADEMOISELLE,75015,Paris 15e  Arrondissement,21-069719-1,2021-09-02T02:00:00+02:00,Restaurant,Satisfaisant,,Restaurant,48.843659,2.295127
2825,BISTROT DU 5,5 RUE FABRE D EGLANTINE,75012,Paris 12e  Arrondissement,21-056085-1,2021-07-08T02:00:00+02:00,Restaurant,Très satisfaisant,,Restaurant,48.846142,2.395313
2830,ABM - MAISON SAINTE GERMAINE,56 RUE DESNOUETTES,75015,Paris 15e  Arrondissement,21-009562-1,2021-02-08T01:00:00+01:00,Restauration collective,Satisfaisant,,Restauration collective,48.835999,2.287483
2831,DOMINO'S PIZZA,97 RUE DIDOT,75014,Paris 14e  Arrondissement,21-005460-1,2021-01-19T01:00:00+01:00,Restaurant,Satisfaisant,,Restaurant,48.828468,2.31632
2834,NATURALIA FRANCE,50 RUE DUHESME,75018,Paris 18e  Arrondissement,21-033890-1,2021-02-17T01:00:00+01:00,Libre service,Très satisfaisant,,Libre service,48.892197,2.341168
2838,0 18,86 RUE DE LA CHAPELLE,75018,Paris 18e  Arrondissement,21-041461-1,2021-05-28T02:00:00+02:00,Restaurant,Satisfaisant,,Restaurant,48.896586,2.359705
2856,POKE FUN,86 RUE RAYMOND LOSSERAND,75014,Paris 14e  Arrondissement,21-041555-1,2021-05-28T02:00:00+02:00,Restaurant,Satisfaisant,,Restaurant,48.833293,2.316772
2861,EAT THE ROAD,129 AVENUE VICTOR HUGO,75016,Paris 16e  Arrondissement,21-016201-1,2021-02-23T01:00:00+01:00,Restaurant,Satisfaisant,,Restaurant,48.867913,2.281515
2874,THAI ALAI,3 BD VICTOR,75015,Paris 15e  Arrondissement,21-041445-1,2021-05-27T02:00:00+02:00,Restaurant,Très satisfaisant,,Restaurant,48.83588,2.279983
2875,LA BRIGATA,196 RUE DE BELLEVILLE,75020,Paris 20e  Arrondissement,21-002587-1,2021-01-05T01:00:00+01:00,Restaurant,Satisfaisant,,Restaurant,48.875186,2.39438
2888,RESTAURANT NOISETTE,4 RUE CROZATIER,75012,Paris 12e  Arrondissement,21-095602-1,2021-11-18T01:00:00+01:00,Restaurant,Très satisfaisant,,Restaurant,48.845369,2.383018
2894,ELLA,193 RUE DE VAUGIRARD,75015,Paris 15e  Arrondissement,21-005007-1,2021-01-15T01:00:00+01:00,Alimentation générale,Très satisfaisant,,Alimentation générale,48.842485,2.311411
2909,IKI,8 BOULEVARD DE L'HOPITAL,75005,Paris 5e  Arrondissement,21-083420-1,2021-10-14T02:00:00+02:00,Restaurant,A améliorer,,Restaurant,48.842552,2.363389
2915,VEROBELLE,17 AV CORENTIN CARIOU,75019,Paris 19e  Arrondissement,21-075103-1,2021-09-21T02:00:00+02:00,Libre service,Satisfaisant,,Libre service,48.895473,2.383076
2927,MELODIE,206 AVENUE JEAN JAURES,75019,Paris 19e  Arrondissement,21-087167-1,2021-10-23T02:00:00+02:00,Restaurant,A améliorer,,Restaurant,48.888494,2.392634
2930,FRANPRIX,12 RUE SEVESTE,75018,Paris 18e  Arrondissement,21-064927-1,2021-05-19T02:00:00+02:00,Libre service,Très satisfaisant,,Libre service,48.884054,2.344512
2932,"""LE MARMITON DE LUTECE""",6 RUE SAINT SEVERIN,75005,Paris 5e  Arrondissement,21-058024-1,2021-07-20T02:00:00+02:00,Restaurant,Satisfaisant,,Restaurant,48.852291,2.345923
2940,SOGERES / LES HESPERIDES,18 RUE MIRABEAU,75016,Paris 16e  Arrondissement,21-004367-1,2021-01-18T01:00:00+01:00,Restauration collective,Satisfaisant,,Restauration collective,48.846799,2.271339
2943,SWOON'S,10 RUE DES SAUSSAIES,75008,Paris 8e  Arrondissement,21-086969-1,2021-10-22T02:00:00+02:00,Restaurant,Très satisfaisant,,Restaurant,48.871267,2.317628
2955,ARPEGE,1 RUE BRILLAT SAVARIN,75013,Paris 13e  Arrondissement,21-060411-1,2021-07-29T02:00:00+02:00,Restauration collective,Satisfaisant,,Restauration collective,48.821523,2.352215
2957,FOIE GRAS ET COMPAGNIE,26 RUE MONTMARTRE,75001,Paris 1er Arrondissement,20-089730-1,2020-12-16T01:00:00+01:00,Traiteur,Très satisfaisant,,Traiteur,48.864215,2.345559
2964,L'EPICERIE DES ENVIRONS,18 RUE RAMEY,75018,Paris 18e  Arrondissement,20-094109-1,2020-12-17T01:00:00+01:00,Libre service,Très satisfaisant,,Libre service,48.888171,2.347043
2966,ECOLE ELEMENTAIRE,15 RUE SORBIER,75020,Paris 20e  Arrondissement,21-044605-1,2021-06-08T02:00:00+02:00,Restauration collective,Satisfaisant,,Restauration collective,48.866434,2.392127
2970,IL COTTAGE,85 BOULEVARD FLANDRIN/1 BOULEVARD LANNES,75116,Paris 16e  Arrondissement,21-053996-1,2021-07-06T02:00:00+02:00,Restaurant,Satisfaisant,,Restaurant,48.869613,2.275039
2971,EMI-LEE,21 RUE DES MESSAGERIES,75010,Paris 10e  Arrondissement,21-024797-1,2021-03-23T01:00:00+01:00,Restaurant,Satisfaisant,,Restaurant,48.876388,2.349183
2976,KEMMACHE HACENE,BISTROT AVENIR,75020,Paris 20e  Arrondissement,21-057351-1,2021-06-29T02:00:00+02:00,Restaurant,Satisfaisant,,Restaurant,48.871811,2.39603
2979,LE PATIO DE L'HORLOGE,47 COURS DE VINCENNES,75020,Paris 20e  Arrondissement,21-087932-1,2021-10-21T02:00:00+02:00,Restaurant,Très satisfaisant,,Restaurant,48.848071,2.403825
2980,RESTAURANT ALLEN AVERY 52 HOCHE,52 Avenue Hoche,75008,Paris,21-037615-1,2021-05-12T02:00:00+02:00,Restauration collective,Satisfaisant,,Restauration collective,48.875291,2.298254
2983,POKE PLANET,1 RUE LEOPOLD ROBERT,75014,Paris 14e  Arrondissement,21-057652-1,2021-07-19T02:00:00+02:00,Restaurant,Satisfaisant,,Restaurant,48.841154,2.331226
3002,QUARTIER LATIN,1 RUE MOUFFETARD,75005,Paris 5e  Arrondissement,21-057308-1,2021-07-15T02:00:00+02:00,Restaurant,Satisfaisant,,Restaurant,48.844957,2.34927
3012,XIN LONG,7 RUE DE TAITI,75012,Paris 12e  Arrondissement,21-034885-1,2021-05-03T02:00:00+02:00,Restaurant,Très satisfaisant,,Restaurant,48.840552,2.400188
3017,FLOCCO,116 boulevard Péreire,75017,Paris 17e  Arrondissement,21-043266-1,2021-06-02T02:00:00+02:00,Restaurant,Très satisfaisant,,Restaurant,48.885675,2.297874
3018,CHEZ KONG,8 RUE ABEL HOVELACQUE,75013,Paris 13e  Arrondissement,21-083623-1,2021-10-14T02:00:00+02:00,Restaurant,Très satisfaisant,,Restaurant,48.833011,2.353545
3028,CHEZ KELLY,27 RUE DE LA HARPE,75005,Paris 5e  Arrondissement,21-080997-1,2021-10-07T02:00:00+02:00,Restaurant,Satisfaisant,,Restaurant,48.852214,2.344543
3029,KEBAB REUILLY,47 BOULEVARD DE REUILLY,75012,Paris 12e  Arrondissement,21-050552-1,2021-06-24T02:00:00+02:00,Restaurant,Satisfaisant,,Restaurant,48.839591,2.394064
3030,LE NUMIDIA,126 RUE D AVRON,75020,Paris 20e  Arrondissement,21-071503-1,2021-09-09T02:00:00+02:00,Restaurant,A améliorer,,Restaurant,48.85303,2.408533
3031,DELI'S CAFE,6  Rue   DE CAUMARTIN,75009,Paris 9e  Arrondissement,20-095473-1,2021-03-16T01:00:00+01:00,Restaurant,Satisfaisant,,Restaurant,48.870673,2.328136
3042,VULIVE A PIZZA,162 BOULEVARD DU MONTPARNASSE,75014,Paris 14e  Arrondissement,21-081320-1,2021-10-07T02:00:00+02:00,Restaurant,Satisfaisant,,Restaurant,48.839995,2.335044
3046,SODIPAR,156 AVENUE PARMENTIER,75010,Paris 10e  Arrondissement,21-075043-1,2021-09-16T02:00:00+02:00,Libre service,Très satisfaisant,,Libre service,48.870473,2.370869
3058,BOULANGERIES PAUL,"25, AVENUE DE L'OPERA",75001,Paris 1er Arrondissement,21-057291-1,2021-07-16T02:00:00+02:00,Restaurant,Très satisfaisant,,Restaurant,48.866709,2.333773
3075,LOTUS VIETNAM,348 RUE DES PYRENEES,75020,Paris 20e  Arrondissement,21-038400-1,2021-04-27T02:00:00+02:00,Restaurant,Très satisfaisant,,Restaurant,48.873918,2.387734
3078,ZHEN BAO FANG,26 RUE EUGENE JUMIN,75019,Paris 19e  Arrondissement,21-044625-1,2021-06-07T02:00:00+02:00,Restaurant,Satisfaisant,,Restaurant,48.887915,2.392275
3080,L'EXPOSITION,51 BOULEVARD LEFEBVRE,75015,Paris 15e  Arrondissement,21-077008-1,2021-09-27T02:00:00+02:00,Restaurant,Très satisfaisant,,Restaurant,48.831396,2.291832
3081,ANATOLIE,70 AVENUE DE CLICHY,75017,Paris 17e  Arrondissement,21-041739-1,2021-05-27T02:00:00+02:00,Restaurant,Satisfaisant,,Restaurant,48.887895,2.325113
3086,O'PAYS,13 AVENUE CORENTIN CARIOU,75019,Paris 19e  Arrondissement,21-045968-1,2021-05-31T02:00:00+02:00,Restaurant,Satisfaisant,,Restaurant,48.895604,2.382934
3093,CAFE PIMPIN,7 RUE GUY MOQUET,75017,Paris 17e  Arrondissement,21-041741-1,2021-05-27T02:00:00+02:00,Restaurant,Très satisfaisant,,Restaurant,48.891489,2.319901
3100,CHEZ FRANCIS,122 RUE CAULAINCOURT,75018,Paris 18e  Arrondissement,21-084786-1,2021-10-18T02:00:00+02:00,Restaurant,Très satisfaisant,,Restaurant,48.88968,2.342599
3101,CARNOT,229 RUE DU FAUBOURG SAINT HONORE,75008,Paris 8e  Arrondissement,21-031455-1,2021-04-20T02:00:00+02:00,Fromagerie|Alimentation générale,Très satisfaisant,,Fromagerie|Alimentation générale,48.877277,2.299444
3125,ANAME,57 RUE CAULAINCOURT,75018,Paris 18e  Arrondissement,21-014604-1,2021-02-17T01:00:00+01:00,Restaurant,Satisfaisant,,Restaurant,48.889509,2.334968
3127,BREIZH CAFE,93 RUE DES MARTYRS,75018,Paris 18e  Arrondissement,21-027585-1,2021-04-01T02:00:00+02:00,Restaurant,Satisfaisant,,Restaurant,48.884304,2.339665
3144,DOLCE ROMANA,"50, AVENUE DES  GOBELINS",75013,Paris 13e  Arrondissement,21-016923-1,2021-03-01T01:00:00+01:00,Restaurant,Satisfaisant,,Restaurant,48.834041,2.353451
3152,MAKLA,60 BOULEVARD DE CLICHY,75018,Paris 18e  Arrondissement,21-042643-1,2021-03-16T01:00:00+01:00,Alimentation générale,Très satisfaisant,,Alimentation générale,48.883366,2.334775
3159,KISS,3 RUE ABEL HOVELACQUE,75013,Paris 13e  Arrondissement,21-079425-1,2021-10-04T02:00:00+02:00,Restaurant,Très satisfaisant,,Restaurant,48.833013,2.353805
3168,LES GROSSES PATATES,33 RUE DE PONTHIEU,75008,Paris 8e  Arrondissement,21-006737-1,2021-01-26T01:00:00+01:00,Restaurant,A améliorer,,Restaurant,48.871091,2.308141
3180,COLLEGE FRANCS BOURGEOIS,"21, RUE SAINT-ANTOINE",75004,Paris 4e  Arrondissement,20-084619-1,2020-12-03T01:00:00+01:00,Restauration collective,Satisfaisant,,Restauration collective,48.853544,2.365784
3182,RESTAURANT LE ROUGE LIME,167 BD VOLTAIRE,75011,Paris 11e  Arrondissement,21-055476-1,2021-07-08T02:00:00+02:00,Restaurant,Satisfaisant,,Restaurant,48.854641,2.385743
3191,MORILLONS DISTRIBUTION,101 RUE DES MORILLONS,75015,Paris 15e  Arrondissement,21-059667-1,2021-07-27T02:00:00+02:00,Libre service,Très satisfaisant,,Libre service,48.831871,2.305451
3204,LA CREOLE,122 BOULEVARD DU MONTPARNASSE,75014,Paris 14e  Arrondissement,21-057603-1,2021-07-19T02:00:00+02:00,Restaurant,Satisfaisant,,Restaurant,48.841361,2.33107
3221,LA PARIGINA,401 RUE DE VAUGIRARD,75015,Paris 15e  Arrondissement,21-078715-1,2021-09-30T02:00:00+02:00,Restaurant,Satisfaisant,,Restaurant,48.833213,2.289355
3229,BAR DU METRO,10 PLACE GAMBETTA,75020,Paris 20e  Arrondissement,21-071961-1,2021-08-27T02:00:00+02:00,Restaurant,Très satisfaisant,,Restaurant,48.865305,2.398441
3232,NOVOTEL SUITES PARIS EXPO PORTE DE VERSA,4 BOULEVARD BRUNE,75014,Paris 14e  Arrondissement,21-043255-1,2021-06-01T02:00:00+02:00,Restaurant,Très satisfaisant,,Restaurant,48.827653,2.304608
3237,TRAN CHUNG,178 RUE LECOURBE,75015,Paris 15e  Arrondissement,21-072937-1,2021-09-14T02:00:00+02:00,Restaurant,Satisfaisant,,Restaurant,48.841264,2.29774
3251,HOPITAL SAINT LOUIS,CUISINE PRINCIPALE,75010,Paris 10e  Arrondissement,21-018908-1,2021-03-05T01:00:00+01:00,Restauration collective,Satisfaisant,,Restauration collective,,
3255,ARCIMBOLDO,22 RUE CADET,75009,Paris 9e  Arrondissement,20-090384-1,2020-12-17T01:00:00+01:00,Restaurant,Satisfaisant,,Restaurant,48.875306,2.343385
3262,ASSOCIATION JEUNESSE LOUBAVITCH,25 RUE RIQUET,75019,Paris 19e  Arrondissement,21-040218-1,2021-05-21T02:00:00+02:00,Restauration collective,Satisfaisant,,Restauration collective,48.88852,2.373421
3264,LE MARAIS HOME,38 BD DU TEMPLE,75011,Paris 11e  Arrondissement,21-080432-1,2021-10-05T02:00:00+02:00,Restaurant,Satisfaisant,,Restaurant,48.865438,2.365687
3267,HOTEL PRINTANIA TEMPLE,16 BD DU TEMPLE,75011,Paris 11e  Arrondissement,21-089957-1,2021-11-03T01:00:00+01:00,Restaurant,Satisfaisant,,Restaurant,48.864406,2.366253
3269,LA GRANGE AUX PAINS,4 AV JEAN JAURES,75019,Paris 19e  Arrondissement,20-090497-1,2020-12-08T01:00:00+01:00,Boulangerie-Pâtisserie,Satisfaisant,,Boulangerie-Pâtisserie,48.882757,2.370744
3272,CAFE DU ROND POINT VAUGIRARD,198 RUE DE LA CONVENTION,75015,Paris 15e  Arrondissement,21-085619-1,2021-10-20T02:00:00+02:00,Restaurant,Satisfaisant,,Restaurant,48.837212,2.296046
3275,NATURALIA,93 RUE REAUMUR,75002,Paris 2e  Arrondissement,21-037613-1,2021-05-12T02:00:00+02:00,Libre service,Très satisfaisant,,Libre service,48.867443,2.346448
3280,COCCI DISKER,49 RUE LAMARCK,75018,Paris 18e  Arrondissement,21-096465-1,2021-09-16T02:00:00+02:00,Libre service,Très satisfaisant,,Libre service,48.889517,2.34034
3281,FIVE PIZZA ORIGINAL,32 BD SAINT MICHEL,75006,Paris 6e  Arrondissement,21-068159-1,2021-08-30T02:00:00+02:00,Restaurant,Très satisfaisant,,Restaurant,48.850059,2.342272
3284,MAW ADE,366 RUE DE VAUGIRARD,75015,Paris 15e  Arrondissement,21-042901-1,2021-06-02T02:00:00+02:00,Restaurant,Satisfaisant,,Restaurant,48.83472,2.29126
3291,BANQUE POPULAIRE RIVES DE PARIS,76-78 AVENUE DE FRANCE,75013,Paris 13e  Arrondissement,21-062332-1,2021-08-04T02:00:00+02:00,Restauration collective,Satisfaisant,,Restauration collective,48.828219,2.37929
3304,CANCILLIERE SALVATOR,PLACE DE LA BASTILLE,75011,Paris 11e  Arrondissement,21-012913-1,2021-02-17T01:00:00+01:00,Restaurant,Très satisfaisant,,Restaurant,48.853685,2.370487
3314,LA PHYLIALE,12 RUE BAYEN,75017,Paris 17e  Arrondissement,21-035224-1,2021-05-04T02:00:00+02:00,Restaurant,Satisfaisant,,Restaurant,48.879413,2.295053
3336,AU CANON DE LA NATION,2 PL DE LA NATION,75012,Paris 12e  Arrondissement,21-042311-1,2021-05-20T02:00:00+02:00,Restaurant,Satisfaisant,,Restaurant,48.848425,2.394171
3339,C' TROBON,4 RUE DE LA COUTELLERIE,75004,Paris 4e  Arrondissement,21-039050-1,2021-05-18T02:00:00+02:00,Restaurant,Satisfaisant,,Restaurant,48.85744,2.350281
3344,CHEZ BRUNO,"26, COUR SAINT-EMILION",75012,Paris 12e  Arrondissement,21-089745-1,2021-10-29T02:00:00+02:00,Restaurant,Satisfaisant,,Restaurant,48.832872,2.386394
3346,DELICES D'ASIE,11 BIS RUE TRAVERSIERE,75012,Paris 12e  Arrondissement,21-059029-1,2021-07-19T02:00:00+02:00,Restaurant,Satisfaisant,,Restaurant,48.845694,2.370503
3362,PITA KHEBAB,18 RUE D AMSTERDAM,75009,Paris 9e  Arrondissement,21-016439-1,2021-02-25T01:00:00+01:00,Restaurant,Très satisfaisant,,Restaurant,48.876591,2.326986
3367,LE PETIT ITALIEN,"5, RUE SAINT-GILLES",75003,Paris 3e  Arrondissement,21-043134-1,2021-06-01T02:00:00+02:00,Restaurant,Satisfaisant,,Restaurant,48.857843,2.3663
3368,OH ! POPOTES,19 BOULEVARD LEFEBVRE,75015,Paris 15e  Arrondissement,21-077863-1,2021-09-28T02:00:00+02:00,Restaurant,Très satisfaisant,,Restaurant,48.832185,2.290019
3369,FRANCE HORIZON,143 AVENUE DE CLICHY,75017,Paris 17e  Arrondissement,21-044160-1,2021-06-07T02:00:00+02:00,Restauration collective,Satisfaisant,,Restauration collective,48.891057,2.319059
3379,LE VENT VERT,63 RUE PIERRE CHARRON,75008,Paris 8e  Arrondissement,21-055908-1,2021-07-12T02:00:00+02:00,Restaurant,Satisfaisant,,Restaurant,48.869934,2.303891
3381,LONG CHANG,36 RUE DE JOINVILLE,75019,Paris 19e  Arrondissement,21-042707-1,2021-06-01T02:00:00+02:00,Transport de denrées alimentaires,Très satisfaisant,,,48.890827,2.378301
3382,II CAFE,13-15 RUE TAITBOUT,75009,Paris 9e  Arrondissement,21-007347-1,2021-01-28T01:00:00+01:00,Restaurant,Satisfaisant,,Restaurant,48.872388,2.335863
3386,LE BOEUF MAILLOT,101 AVENUE DES TERNES,75017,Paris 17e  Arrondissement,21-080370-1,2021-10-06T02:00:00+02:00,Restaurant,Très satisfaisant,,Restaurant,48.88046,2.285575
3403,SOGUISA,"72, RUE MONTORGUEIL",75002,Paris 2e  Arrondissement,21-068687-1,2021-08-31T02:00:00+02:00,Poissonnerie,Très satisfaisant,,Poissonnerie,48.865435,2.347031
3415,NEX PHENIX D'OR,"26, RUE DE LA ROQUETTE",75011,Paris 11e  Arrondissement,21-029500-1,2021-04-13T02:00:00+02:00,Restaurant,Très satisfaisant,,Restaurant,48.854126,2.371238
3420,AIT TALEB LAHOUCINE,10 RUE BURQ,75018,Paris 18e  Arrondissement,21-088526-1,2021-08-24T02:00:00+02:00,Commerce alimentaire,Très satisfaisant,,,48.886082,2.336317
3427,LE BISTROT DE MAELLE & AUGUSTIN,42 RUE COQUILLIERE,75001,Paris 1er Arrondissement,21-003168-1,2021-01-07T01:00:00+01:00,Restaurant,Satisfaisant,,Restaurant,48.864537,2.34102
3430,OEUVRE DE SECOURS AUX ENFANTS,30 BIS RUE SANTERRE,75012,Paris 12e  Arrondissement,21-026153-1,2021-03-30T02:00:00+02:00,Restauration collective,Satisfaisant,,Restauration collective,48.842946,2.400728
3433,LA MAISON DU 46,46 RUE D'ARTOIS,75008,Paris 8e  Arrondissement,21-058015-1,2021-07-19T02:00:00+02:00,Restaurant,Satisfaisant,,Restaurant,48.874497,2.305343
3441,ASS CANTINE SCOLAIRE DU GROUPE OHR JOSEP,29 RUE DE THIONVILLE,75019,Paris 19e  Arrondissement,21-048725-1,2021-06-21T02:00:00+02:00,Restauration collective,Satisfaisant,,Restauration collective,48.890275,2.385661
3466,"LA PERLE MONTPARNASSE ""ZONE PETIT DEJEUNER""",3 RUE MAISON DIEU,75014,Paris 14e  Arrondissement,21-045256-1,2021-06-08T02:00:00+02:00,Restaurant,Très satisfaisant,,Restaurant,48.835883,2.322163
3468,FIN DE FAIM,20 AV LEDRU ROLLIN,75012,Paris 12e  Arrondissement,21-042488-1,2021-05-26T02:00:00+02:00,Restaurant,Satisfaisant,,Restaurant,48.846559,2.369239
3471,"MONOPRIX EXPLOITATION, PAR ABREVIATION MPX",125 BOULEVARD VINCENT AURIOL,75013,Paris 13e  Arrondissement,21-042617-1,2021-06-01T02:00:00+02:00,Rayon fromagerie,Très satisfaisant,,Rayon fromagerie,48.833461,2.364136
3480,MAISON DE RETRAITE LA PROVIDENCE,"77, RUE DES MARTYRS",75018,Paris 18e  Arrondissement,21-067095-1,2021-08-24T02:00:00+02:00,Restauration collective,Satisfaisant,,Restauration collective,48.882826,2.339583
3501,RAPHAEL H,36 RUE DE BERRI,75008,Paris 8e  Arrondissement,21-058141-1,2021-07-20T02:00:00+02:00,Restaurant,Satisfaisant,,Restaurant,48.873759,2.306766
3502,BOUILLON RL,47 RUE DE ROCHECHOUART,75009,Paris 9e  Arrondissement,21-042609-1,2021-06-01T02:00:00+02:00,Restaurant,Satisfaisant,,Restaurant,48.879069,2.345427
3505,FU THAI RESTAURANT,17 BOULEVARD MONTMARTRE,75002,Paris 2e  Arrondissement,21-047916-1,2021-06-17T02:00:00+02:00,Restaurant,A améliorer,,Restaurant,48.871668,2.340933
3506,LE MESTURET,77 RUE DE RICHELIEU,75002,Paris 2e  Arrondissement,21-015452-1,2021-02-23T01:00:00+01:00,Restaurant,Très satisfaisant,,Restaurant,48.869,2.338492
3510,PIZZA PINO,4 PLACE DE LA REPUBLIQUE,75011,Paris 11e  Arrondissement,21-061759-1,2021-07-29T02:00:00+02:00,Restaurant,Très satisfaisant,,Restaurant,48.866421,2.365231
3512,SOLEIL D'OR,2 RUE DU SOLEIL,75020,Paris 20e  Arrondissement,21-061162-1,2021-07-23T02:00:00+02:00,Restaurant,Satisfaisant,,Restaurant,48.875143,2.394006
3516,LA BELLE EPOQUE,43 BIS RUE MARX DORMOY,75018,Paris 18e  Arrondissement,21-085655-1,2021-10-20T02:00:00+02:00,Restaurant,Satisfaisant,,Restaurant,48.887703,2.359766
3517,IKUZO,110 RUE DES DAMES,75017,Paris 17e  Arrondissement,20-090905-1,2020-12-21T01:00:00+01:00,Restaurant,Satisfaisant,,Restaurant,48.882502,2.316331
3528,COLLEGE BORIS VIAN,76 BOULEVARD BERTHIER,75017,Paris 17e  Arrondissement,21-074455-1,2021-09-20T02:00:00+02:00,Restauration collective,Satisfaisant,,Restauration collective,48.890577,2.304462
3530,AMERICAN CORNER,160 RUE SAINT JACQUES,75005,Paris 5e  Arrondissement,21-028086-1,2021-04-08T02:00:00+02:00,Restaurant,Satisfaisant,,Restaurant,48.847145,2.343381
3533,FOOD TURK - YONDJA,11 - 19 RUE DE L ECHIQUIER (17 RUE DE MAZAGRAN),75010,Paris 10e  Arrondissement,21-042630-1,2021-06-01T02:00:00+02:00,Restaurant,Satisfaisant,,Restaurant,48.871259,2.351492
3537,BOUABID ABDELMALEK,1 RUE LEON,75018,Paris 18e  Arrondissement,21-090377-1,2021-09-08T02:00:00+02:00,Alimentation générale,Satisfaisant,,Alimentation générale,48.886823,2.353352
3545,MELINDA,30 AVENUE DE LA PORTE DE CHOISY,75013,Paris 13e  Arrondissement,21-045864-1,2021-06-10T02:00:00+02:00,Restaurant,Très satisfaisant,,Restaurant,48.819391,2.365486
3548,ECOLE GALILEE,71 RUE CHARDON LAGACHE,75016,Paris 16e  Arrondissement,21-007808-1,2021-02-01T01:00:00+01:00,Restauration collective,Satisfaisant,,Restauration collective,48.841883,2.264252
3549,FONDATION OEUVRE DE LA CROIX SAINT SIMON,38 RUE NICOLO,75016,Paris 16e  Arrondissement,21-008478-1,2021-02-03T01:00:00+01:00,Restauration collective,Satisfaisant,,Restauration collective,48.859984,2.278646
3560,EHPAD ANNIE GIRARDOT,6-12 RUE ANNIE GIRARDOT,75013,Paris 13e  Arrondissement,21-030666-1,2021-04-19T02:00:00+02:00,Restauration collective,Très satisfaisant,,Restauration collective,48.821518,2.34796
3570,S.A.R.L LE CARDINAL,"5, PLACE DE LA PORTE DE SAINT-CL",75016,Paris 16e  Arrondissement,21-072876-1,2021-09-14T02:00:00+02:00,Restaurant,Très satisfaisant,,Restaurant,48.837268,2.25715
3572,BANH ME TENDER 2,139 AV PARMENTIER,75010,Paris 10e  Arrondissement,21-038554-1,2021-05-18T02:00:00+02:00,Restaurant,Satisfaisant,,Restaurant,48.870336,2.370609
3576,CRECHE SAINT AMBROISE,19 RUE PASTEUR,75011,Paris 11e  Arrondissement,21-042751-1,2021-06-08T02:00:00+02:00,Restauration collective,Satisfaisant,,Restauration collective,48.86248,2.37597
3578,RESTAURANT FELIX,79 AVENUE DE SEGUR,75015,Paris 15e  Arrondissement,21-055085-1,2021-07-06T02:00:00+02:00,Restaurant,Très satisfaisant,,Restaurant,48.847387,2.305987
3579,LAB,3-5 RUE DU POT DE FER,75005,Paris 5e  Arrondissement,21-048306-1,2021-06-17T02:00:00+02:00,Restaurant,Satisfaisant,,Restaurant,48.843001,2.349109
3582,MAR'CO,4 RUE DE LA SOURDIERE,75001,Paris 1er Arrondissement,21-021098-1,2021-03-11T01:00:00+01:00,Restaurant,Satisfaisant,,Restaurant,48.865265,2.331781
3592,DA MAY FA,12 RUE LEPIC,75018,Paris 18e  Arrondissement,21-012197-1,2021-02-12T01:00:00+01:00,Restaurant,Très satisfaisant,,Restaurant,48.884475,2.33352
3615,HI MART,71 bis RUE SAINT CHARLES,75015,Paris 15e  Arrondissement,21-029906-1,2021-04-13T02:00:00+02:00,Libre service,Très satisfaisant,,Libre service,48.847849,2.286807
3619,LA CRIEE,68 QUAI DE SEINE,75019,Paris 19e  Arrondissement,21-064409-1,2021-08-12T02:00:00+02:00,Restaurant,Très satisfaisant,,Restaurant,48.888385,2.378144
3622,A JEAN BART,2 RUE JOUFFROY D'ABBANS,75017,Paris 17e  Arrondissement,21-058229-1,2021-07-20T02:00:00+02:00,Restaurant,Satisfaisant,,Restaurant,48.887299,2.313422
3627,CHAILLOT NF 41,41 RUE DE CHAILLOT,75016,Paris 16e  Arrondissement,21-042654-1,2021-05-18T02:00:00+02:00,Restaurant,Satisfaisant,,Restaurant,48.867924,2.298062
3636,CAISSE DES DEPOTS ET CONSIGNATIONS,56 RUE DE LILLE,75007,Paris 7e  Arrondissement,21-058092-1,2021-07-21T02:00:00+02:00,Restauration collective,Très satisfaisant,,Restauration collective,48.859084,2.328006
3638,LA MIOTTE,37 RUE DE MAUBEUGE,75009,Paris 9e  Arrondissement,21-042756-1,2021-06-01T02:00:00+02:00,Restaurant,Satisfaisant,,Restaurant,48.878727,2.346003
3656,CAFE LITTERATUM,22 RUE DES ECOLES,75005,Paris 5e  Arrondissement,20-091052-1,2020-12-22T01:00:00+01:00,Restaurant,Satisfaisant,,Restaurant,48.848778,2.348305
3674,LE PETIT GEORGE,37 RUE WASHINGTON,75008,Paris 8e  Arrondissement,21-058188-1,2021-07-20T02:00:00+02:00,Restaurant,Satisfaisant,,Restaurant,48.87395,2.304112
3678,MONTS ET RIZIERES,105 RUE MONGE,75005,Paris 5e  Arrondissement,21-039937-1,2021-05-25T02:00:00+02:00,Restaurant,Très satisfaisant,,Restaurant,48.840404,2.351839
3681,SUSHI JAPO,4 RUE DE MILAN,75009,Paris 9e  Arrondissement,21-070687-1,2021-09-07T02:00:00+02:00,Restaurant,Satisfaisant,,Restaurant,48.878995,2.329446
3683,RESTAURANT RAPIDE OBAO,18 RUE RAMBUTEAU,75003,Paris 3e  Arrondissement,20-091065-1,2020-12-21T01:00:00+01:00,Restaurant,Satisfaisant,,Restaurant,48.860847,2.354802
3691,MUGET,67 RUE DES PYRENEES,75020,Paris 20e  Arrondissement,21-074925-1,2021-09-09T02:00:00+02:00,Restaurant,Satisfaisant,,Restaurant,48.852775,2.406043
3699,CHEZ SIDI BOUSSAID,40 RUE DU FBG SAINT DENIS,75010,Paris 10e  Arrondissement,21-027216-1,2021-04-01T02:00:00+02:00,Restaurant,Satisfaisant,,Restaurant,48.871324,2.353613
3702,TEMPLE SAINT CHARLES,134 RUE SAINT CHARLES,75015,Paris 15e  Arrondissement,21-058169-1,2021-07-21T02:00:00+02:00,Boulangerie-Pâtisserie,Satisfaisant,,Boulangerie-Pâtisserie,48.843683,2.282797
3703,CHARMES D'AFRIQUE PARIS,68 BOULEVARD DAVOUT,75020,Paris 20e  Arrondissement,21-058272-1,2021-07-16T02:00:00+02:00,Restaurant,Satisfaisant,,Restaurant,48.852952,2.411027
3704,AUGUSTIN,15 PLACE RICHARD BARET,75017,Paris 17e  Arrondissement,21-067283-1,2021-08-24T02:00:00+02:00,Restaurant,Satisfaisant,,Restaurant,48.884079,2.321788
3734,IL NATURAL,74-76 AVENUE DE LA GRANDE ARMEE,75017,Paris 17e  Arrondissement,21-079834-1,2021-10-05T02:00:00+02:00,Restaurant,Très satisfaisant,,Restaurant,48.877269,2.284603
3744,SARL NINA,"9, RUE SAINT-AUGUSTIN",75002,Paris 2e  Arrondissement,21-024766-1,2021-03-23T01:00:00+01:00,Restaurant,Satisfaisant,,Restaurant,48.868826,2.33733
3748,RESTAURANT EMERAUDE NAVARIN,12 RUE DE NAVARIN,75009,Paris 9e  Arrondissement,21-006208-1,2021-01-25T01:00:00+01:00,Restauration collective,Satisfaisant,,Restauration collective,48.879689,2.338997
3759,CAFE L'EVASION,33 RUE D'AVRON,75020,Paris 20e  Arrondissement,21-049715-1,2021-06-15T02:00:00+02:00,Restaurant,Satisfaisant,,Restaurant,48.851861,2.400903
3766,JUGOYA,85 RUE DES ENTREPRENEURS,75015,Paris 15e  Arrondissement,20-096420-1,2021-06-03T02:00:00+02:00,Restaurant,Satisfaisant,,Restaurant,48.84408,2.292178
3779,LA SARTORIA,197 RUE DE GRENELLE,75007,Paris 7e  Arrondissement,21-059207-1,2021-07-22T02:00:00+02:00,Restaurant,Satisfaisant,,Restaurant,48.856519,2.303244
3783,ASSOC MOSAIQUE L ATELIER DES ENFANTS,21 RUE DE LA FOLIE MERICOURT,75011,Paris,21-042760-1,2021-06-01T02:00:00+02:00,Restauration collective,Satisfaisant,,Restauration collective,48.862495,2.373497
3795,KIRANE INDIA,20 RUE DU DEBARCADERE,75017,Paris 17e  Arrondissement,21-065573-1,2021-08-18T02:00:00+02:00,Restaurant,Satisfaisant,,Restaurant,48.878006,2.285549
3803,IT,74 RUE RAMBUTEAU,75001,Paris 1er Arrondissement,20-091131-1,2020-12-21T01:00:00+01:00,Restaurant,Satisfaisant,,Restaurant,48.862169,2.349651
3806,CAFE PARISIEN 10 EME,127 RUE DU FAUBOURG SAINT DENIS,75010,Paris 10e  Arrondissement,21-090979-1,2021-11-09T01:00:00+01:00,Restaurant,Satisfaisant,,Restaurant,48.876936,2.356135
3807,LE VALMY,145 QUAI DE VALMY,75010,Paris 10e  Arrondissement,21-068546-1,2021-08-31T02:00:00+02:00,Restaurant,Satisfaisant,,Restaurant,48.877503,2.365127
3811,BIO C'BON,60 RUE SAINT ANDRE DES ARTS,75006,Paris 6e  Arrondissement,21-058373-1,2021-04-23T02:00:00+02:00,Rayon traiteur,Très satisfaisant,,Rayon traiteur,48.853552,2.339626
3814,BIO C'BON,60 RUE SAINT ANDRE DES ARTS,75006,Paris 6e  Arrondissement,21-058382-1,2021-04-23T02:00:00+02:00,Rayon fromagerie,Très satisfaisant,,Rayon fromagerie,48.853552,2.339626
3817,SCEA FERME DE LA PRAIRIE,MARCHE SAINT CHARLES 75015,75015,Paris 15e  Arrondissement,21-046468-1,2021-06-10T02:00:00+02:00,Producteur fermier,Très satisfaisant,,Producteur fermier,48.844796,2.28385
3820,PRIK THAI,160 AVENUE DU MAINE,75014,Paris 14e  Arrondissement,21-050620-1,2021-06-24T02:00:00+02:00,Restaurant,Satisfaisant,,Restaurant,48.833449,2.32432
3823,BIO C'BON,60 RUE SAINT ANDRE DES ARTS,75006,Paris 6e  Arrondissement,21-058365-1,2021-04-23T02:00:00+02:00,Libre service,Très satisfaisant,,Libre service,48.853552,2.339626
3828,BRASSERIE MONT,147 Boulevard Raspail,75006,Paris 6e  Arrondissement,21-045055-1,2021-06-08T02:00:00+02:00,Restaurant,Satisfaisant,,Restaurant,48.842191,2.329736
3843,ROLLER CAFE,50 BOULEVARD DE LA BASTILLE,75012,Paris 12e  Arrondissement,21-063466-1,2021-07-29T02:00:00+02:00,Restaurant,Satisfaisant,,Restaurant,48.85152,2.369286
3846,GOUTEA,43 RUE DU TEMPLE,75004,Paris 4e  Arrondissement,20-091112-1,2020-12-21T01:00:00+01:00,Restaurant,Très satisfaisant,,Restaurant,48.859691,2.354079
3848,MAMMA ROMA,55 RUE DU CHERCHE MIDI,75006,Paris 6e  Arrondissement,21-027893-1,2021-04-02T02:00:00+02:00,Restaurant,Satisfaisant,,Restaurant,48.848675,2.325015
3850,LE MAURITIUS,3 RUE ERNEST CRESSON,75014,Paris 14e  Arrondissement,20-091589-1,2020-12-16T01:00:00+01:00,Restaurant,Satisfaisant,,Restaurant,48.832327,2.33007
3853,EVANCIA,173 BIS RUE DU FBG SAINT DENIS,75010,Paris 10e  Arrondissement,21-033214-1,2021-04-26T02:00:00+02:00,Restauration collective,Satisfaisant,,Restauration collective,48.880204,2.357393
3857,PIZZA ROMA,27 RUE DES ECOLES,75005,Paris 5e  Arrondissement,20-091103-1,2020-12-22T01:00:00+01:00,Restaurant,Satisfaisant,,Restaurant,48.848585,2.348211
3859,DAILY SYRIEN,55 RUE DU FBG ST DENIS,75010,Paris 10e  Arrondissement,20-083952-1,2020-12-01T01:00:00+01:00,Restaurant,Satisfaisant,,Restaurant,48.871889,2.353714
3864,O'ROYAL RESTAURANT,7 RUE RIQUET,75019,Paris 19e  Arrondissement,20-093312-1,2020-12-18T01:00:00+01:00,Restaurant,Satisfaisant,,Restaurant,48.888159,2.376306
3866,L'AGE D'OR,26 RUE DU DOCTEUR MAGNAN,75013,Paris 13e  Arrondissement,21-087725-1,2021-10-26T02:00:00+02:00,Restaurant,Satisfaisant,,Restaurant,48.826494,2.359987
3869,LYCEE GENERAL & TECHNOLOGIQ EDGAR QUINET,63 RUE DES MARTYRS,75009,Paris 9e  Arrondissement,21-027473-1,2021-03-02T01:00:00+01:00,Restauration collective,Très satisfaisant,,Restauration collective,48.881355,2.33981
3876,LES COPAINS,370 RUE DE VAUGIRARD,75015,Paris 15e  Arrondissement,21-042831-1,2021-06-02T02:00:00+02:00,Boulangerie-Pâtisserie,Satisfaisant,,Boulangerie-Pâtisserie,48.834082,2.290248
3880,COJEAN,11 AVENUE DELCASSE,75008,Paris 8e  Arrondissement,21-010312-1,2021-02-09T01:00:00+01:00,Restaurant,Très satisfaisant,,Restaurant,48.873475,2.314353
3893,COLLEGE GEORGES BRAQUE,91-95 RUE BRILLAT SAVARIN,75013,Paris 13e  Arrondissement,21-078996-1,2021-09-30T02:00:00+02:00,Restauration collective,Satisfaisant,,Restauration collective,48.824971,2.343099
3895,LE SAINT-MICHEL,199 T RUE DE LA CONVENTION,75015,Paris 15e  Arrondissement,21-082881-1,2021-10-13T02:00:00+02:00,Restaurant,Très satisfaisant,,Restaurant,48.836936,2.297801
3899,LES MALICIEUX DE MALESHERBES,63 BOULEVARD MALESHERBES,75008,Paris 8e  Arrondissement,21-025552-1,2021-03-26T01:00:00+01:00,Restauration collective,Satisfaisant,,Restauration collective,48.876347,2.317738
3904,LES CHOUPETTES DE CHOUCHOU,27 RUE DURANTIN,75018,Paris 18e  Arrondissement,21-063990-1,2021-05-11T02:00:00+02:00,Métier de bouche,Très satisfaisant,,,48.886326,2.335997
3909,LE RENDEZ-VOUS DES VIGNERONS,58 / 60 RUE DE BERCY,75012,Paris 12e  Arrondissement,21-088990-1,2021-10-22T02:00:00+02:00,Restaurant,Très satisfaisant,,Restaurant,48.837563,2.383059
3910,TAWAK,7 RUE DE FLEURUS,75006,Paris 6e  Arrondissement,21-058457-1,2021-07-22T02:00:00+02:00,Transport de denrées alimentaires,Très satisfaisant,,,48.84699,2.331376
3925,DELICIOUS ISTANBUL,97 RUE LA FAYETTE,75010,Paris 10e  Arrondissement,21-058461-1,2021-07-22T02:00:00+02:00,Restaurant,Satisfaisant,,Restaurant,48.877517,2.349799
3931,DUKE,184 BD VOLTAIRE,75011,Paris 11e  Arrondissement,21-057010-1,2021-07-15T02:00:00+02:00,Restaurant,Très satisfaisant,,Restaurant,48.854576,2.385207
3935,BIG FARMER,65 BD DAVOUT,75020,Paris 20e  Arrondissement,21-058441-1,2021-07-16T02:00:00+02:00,Restaurant,Satisfaisant,,Restaurant,48.853136,2.41042
3948,LYCEE TECHNOLOGIQUE JULES SIEGFRIED,"12, RUE D'ABBEVILLE",75010,Paris 10e  Arrondissement,21-025392-1,2021-03-25T01:00:00+01:00,Restauration collective,Très satisfaisant,,Restauration collective,48.878977,2.349967
3954,LYCEE GENERAL JACQUES DECOUR,12 avenue Trudaine,75009,Paris 9e  Arrondissement,21-000967-1,2021-01-05T01:00:00+01:00,Restauration collective,Satisfaisant,,Restauration collective,48.881483,2.343411
3967,LE VINGT-ET-UN,21 RUE DE LA JONQUIERE,75017,Paris 17e  Arrondissement,21-058536-1,2021-07-22T02:00:00+02:00,Restaurant,Satisfaisant,,Restaurant,48.893453,2.325227
3971,CAFE MADAM,150 RUE SAINT DENIS,75002,Paris 2e  Arrondissement,21-008439-1,2021-02-02T01:00:00+01:00,Restaurant,Très satisfaisant,,Restaurant,48.865606,2.350675
3974,MUNIYANDI VILAS,207 RUE DU FBG SAINT DENIS,75010,Paris 10e  Arrondissement,21-090523-1,2021-11-08T01:00:00+01:00,Restaurant,Très satisfaisant,,Restaurant,48.883776,2.359104
3978,NATURALIA,218 RUE DE LA CONVENTION,75015,Paris 15e  Arrondissement,21-058391-1,2021-07-20T02:00:00+02:00,Libre service,Très satisfaisant,,Libre service,48.836483,2.29863
3982,CHEZ PAUL,37 RUE DE LA JONQUIERE,75017,Paris 17e  Arrondissement,21-058530-1,2021-07-22T02:00:00+02:00,Restaurant,Satisfaisant,,Restaurant,48.893462,2.32386
3998,LA P'TITE CUISINE DE PICPUS,28-30 RUE DE PICPUS,75012,Paris 12e  Arrondissement,21-096349-1,2021-11-25T01:00:00+01:00,Restaurant,Très satisfaisant,,Restaurant,48.845436,2.395095
4004,SUSHI JAPO,53 RUE DE ROME,75008,Paris 8e  Arrondissement,21-082618-1,2021-10-12T02:00:00+02:00,Restaurant,Satisfaisant,,Restaurant,48.879026,2.321943
4009,MOMA,58 RUE DE CHARONNE,75011,Paris 11e  Arrondissement,21-043071-1,2021-05-25T02:00:00+02:00,Restaurant,Satisfaisant,,Restaurant,48.853194,2.378303
4015,CAFE LE CHAMBERTIN,38 BOULEVARD DE BERCY,75012,Paris 12e  Arrondissement,21-066204-1,2021-08-16T02:00:00+02:00,Restaurant,Satisfaisant,,Restaurant,48.840107,2.380596
4023,MALRO,7 RUE FROISSART,75003,Paris 3e  Arrondissement,21-031751-1,2021-04-20T02:00:00+02:00,Restaurant,Très satisfaisant,,Restaurant,48.861501,2.366077
4028,KARAVAKI AU JARDIN DU LUXEMBOURG,7 RUE GAY LUSSAC,75005,Paris 5e  Arrondissement,21-012203-1,2021-02-16T01:00:00+01:00,Restaurant,Satisfaisant,,Restaurant,48.84647,2.341118
4032,LE BARATIN,41 BD SAINT MARCEL,75013,Paris 13e  Arrondissement,21-058432-1,2021-07-22T02:00:00+02:00,Restaurant,Satisfaisant,,Restaurant,48.838304,2.357268
4040,LE BISTRO...T D'ANTOINE,17 RUE VERNIER,75017,Paris 17e  Arrondissement,21-043005-1,2021-06-02T02:00:00+02:00,Restaurant,Très satisfaisant,,Restaurant,48.884145,2.290794
4060,CARREFOUR EXPRESS,59 RUE DE LA TOMBE ISSOIRE,75014,Paris 14e  Arrondissement,20-091476-1,2020-12-21T01:00:00+01:00,Libre service,Satisfaisant,,Libre service,48.829477,2.33376
4068,CONSERVATOIRE NATIONAL DES ARTS ET METIERS,2 RUE CONTE,75003,Paris,21-029842-1,2021-04-15T02:00:00+02:00,Restauration collective,Satisfaisant,,Restauration collective,48.865952,2.356461
4090,MAVA,243 B RUE DE VAUGIRARD,75015,Paris 15e  Arrondissement,21-043139-1,2021-06-01T02:00:00+02:00,Restaurant,Très satisfaisant,,Restaurant,48.840666,2.305362
4097,CAMILLE,24 RUE DES FRANCS BOURGEOIS,75003,Paris 3e  Arrondissement,21-079854-1,2021-10-04T02:00:00+02:00,Restaurant,Très satisfaisant,,Restaurant,48.857786,2.360646
4105,SOGIBERRI,29-31 RUE DE BERRI,75008,Paris 8e  Arrondissement,21-015965-1,2021-02-24T01:00:00+01:00,Boulangerie-Pâtisserie,Satisfaisant,,Boulangerie-Pâtisserie,48.873407,2.30581
4107,ATELIER DU CHOCOLAT DE BAYONNE,107 RUE ST LAZARE,75009,Paris 9e  Arrondissement,21-007362-1,2021-01-21T01:00:00+01:00,Chocolatier,Très satisfaisant,,Chocolatier,48.875602,2.327465
4109,BUGSY'S FRANCE,15 RUE MONTALIVET,75008,Paris 8e  Arrondissement,21-087027-1,2021-10-22T02:00:00+02:00,Restaurant,Très satisfaisant,,Restaurant,48.871203,2.318033
4110,CHICKEN RAPIDO,166 BOULEVARD MORTIER,75020,Paris 20e  Arrondissement,21-023006-1,2021-03-02T01:00:00+01:00,Restaurant,Satisfaisant,,Restaurant,48.87667,2.407282
4118,L'OLYMPE,62 RUE BOTZARIS,75019,Paris 19e  Arrondissement,21-080885-1,2021-09-13T02:00:00+02:00,Restaurant,Satisfaisant,,Restaurant,48.879353,2.385447
4121,LA CANTINE MAX,"372, BIS RUE DE VAUGIRARD",75015,Paris 15e  Arrondissement,21-071652-1,2021-09-09T02:00:00+02:00,Restaurant,Satisfaisant,,Restaurant,48.833689,2.289742
4125,FORTUNA,98 RUE DE CHARONNE,75011,Paris 11e  Arrondissement,21-091262-1,2021-11-09T01:00:00+01:00,Restaurant,Très satisfaisant,,Restaurant,48.854202,2.383542
4129,LE MERCURE,84 RUE PIXERECOURT,75020,Paris 20e  Arrondissement,21-004267-1,2021-01-08T01:00:00+01:00,Restaurant,Satisfaisant,,Restaurant,48.874826,2.395659
4151,HAPPY SUSHI II,103 BOULEVARD SOULT,75012,Paris 12e  Arrondissement,21-084650-1,2021-10-15T02:00:00+02:00,Restaurant,Satisfaisant,,Restaurant,48.843038,2.409613
4152,2Z RESTO,36 AVENUE JEAN JAURES,75019,Paris 19e  Arrondissement,21-042191-1,2021-05-19T02:00:00+02:00,Restaurant,Satisfaisant,,Restaurant,48.883411,2.373229
4155,ORNANO CHAUSSURES,73 BOULEVARD ORNANO,75018,Paris 18e  Arrondissement,20-091386-1,2020-12-23T01:00:00+01:00,Restaurant,Satisfaisant,,Restaurant,48.897079,2.344846
4160,BIOCOOP BASTILLE,10 RUE BOULLE,75011,Paris 11e  Arrondissement,21-043827-1,2021-05-28T02:00:00+02:00,Rayon fromagerie|Rayon traiteur,Très satisfaisant,,Rayon fromagerie|Rayon traiteur,48.856821,2.372267
4165,FIVE SUN,1 RUE DE DUNKERQUE,75010,Paris 10e  Arrondissement,21-082364-1,2021-10-12T02:00:00+02:00,Restaurant,Satisfaisant,,Restaurant,48.879228,2.358504
4169,BOSSUET NOTRE DAME,35 RUE DE CHABROL,75010,Paris 10e  Arrondissement,21-008223-1,2021-02-02T01:00:00+01:00,Restauration collective,Satisfaisant,,Restauration collective,48.876767,2.353315
4181,BIOCOOP BASTILLE,10 RUE BOULLE,75011,Paris 11e  Arrondissement,21-043575-1,2021-05-28T02:00:00+02:00,Libre service|Alimentation générale,Très satisfaisant,,Libre service|Alimentation générale,48.856821,2.372267
4183,CHAUDEMANCHE,1 BOULEVARD DU TEMPLE,75003,Paris 3e  Arrondissement,21-038741-1,2021-05-18T02:00:00+02:00,Restaurant,Très satisfaisant,,Restaurant,48.863133,2.366446
4184,LES VOLONTAIRES DU VRAC,226 RUE DE VAUGIRARD,75015,Paris 15e  Arrondissement,21-043110-1,2021-06-01T02:00:00+02:00,Libre service|Alimentation générale,Très satisfaisant,,Libre service|Alimentation générale,48.840714,2.304933
4185,MICKA FALAFEL,172 BIS rue du Faubourg Saint Antoine  75 012,75012,Paris 12e  Arrondissement,21-044363-1,2021-05-31T02:00:00+02:00,Restaurant,Très satisfaisant,,Restaurant,48.850231,2.382125
4188,QINGFENG PARIS,4 RUE BEATRIX DUSSANE,75015,Paris 15e  Arrondissement,21-073994-1,2021-09-16T02:00:00+02:00,Restaurant,Satisfaisant,,Restaurant,48.850177,2.290212
4189,LES DELICES D'ANTALYA,190 BOULEVARD DE L VILLETTE,75019,Paris 19e  Arrondissement,21-038280-1,2021-05-17T02:00:00+02:00,Restaurant,Satisfaisant,,Restaurant,48.881854,2.370539
4208,O DELLYS DE MELYNA,195 Bis RUE RAYMOND LOSSERAND,75014,Paris 14e  Arrondissement,21-006021-1,2021-01-20T01:00:00+01:00,Restaurant,Satisfaisant,,Restaurant,48.829189,2.308725
4212,AUX TROIS MAILLETS,"67, RUE SAINT-DENIS",75001,Paris 1er Arrondissement,21-062198-1,2021-08-04T02:00:00+02:00,Restaurant,Satisfaisant,,Restaurant,48.861489,2.348928
4217,SAS BOULAY,228 RUE DE VAUGIRARD,75015,Paris 15e  Arrondissement,21-043164-1,2021-06-01T02:00:00+02:00,Boulangerie-Pâtisserie,Très satisfaisant,,Boulangerie-Pâtisserie,48.840633,2.304652
4221,LYCEE SAINT THOMAS D AQUIN,44 RUE DE GRENELLE,75007,Paris 7e  Arrondissement,21-008201-1,2021-02-02T01:00:00+01:00,Restauration collective,Satisfaisant,,Restauration collective,48.854136,2.326766
4226,L AMAZONIAL,3 RUE SAINTE-OPPORTUNE,75001,Paris 1er Arrondissement,21-071833-1,2021-09-08T02:00:00+02:00,Restaurant,Satisfaisant,,Restaurant,48.859976,2.347155
4243,PASSAGE 53,53 PASSAGE DES PANORAMAS,75002,Paris 2e  Arrondissement,21-020000-1,2021-03-09T01:00:00+01:00,Restaurant,Très satisfaisant,,Restaurant,48.871073,2.341659
4244,ROCA,31 RUE GUILLAUME TELL,75017,Paris 17e  Arrondissement,21-043217-1,2021-06-02T02:00:00+02:00,Restaurant,Très satisfaisant,,Restaurant,48.884853,2.295182
4246,ARTI,"173, RUE LECOURBE",75015,Paris 15e  Arrondissement,21-060790-1,2021-07-29T02:00:00+02:00,Restaurant,Satisfaisant,,Restaurant,48.840934,2.297389
4249,DORJEE SUSHI,125 BD VINCENT AURIOL,75013,Paris 13e  Arrondissement,21-043450-1,2021-06-01T02:00:00+02:00,Restaurant,Très satisfaisant,,Restaurant,48.833332,2.364342
4252,LE CHAT ZEN,20 RUE DU RENARD,75004,Paris 4e  Arrondissement,21-037984-1,2021-05-12T02:00:00+02:00,Restaurant,Très satisfaisant,,Restaurant,48.859593,2.352749
4257,SAS CYRO,5 AVENUE JEAN JAURES,75019,Paris 19e  Arrondissement,21-007036-1,2021-01-25T01:00:00+01:00,Restaurant,Satisfaisant,,Restaurant,48.883275,2.371488
4264,LA VIE CLAIRE,16 RUE DU GRENIER SAINT LAZARE,75003,Paris 3e  Arrondissement,20-096776-1,2021-08-26T02:00:00+02:00,Libre service|Alimentation générale,Satisfaisant,,Libre service|Alimentation générale,48.862967,2.353603
4269,BOUCHERIE ECONOMIQUE,1 RUE JEANNE D ARC,75013,Paris 13e  Arrondissement,21-022861-1,2021-03-16T01:00:00+01:00,Boucherie-Charcuterie,Très satisfaisant,,Boucherie-Charcuterie,48.828667,2.369802
4298,CNP ASSURANCES,4 PLACE RAOUL DAUTRY,75015,Paris 15e  Arrondissement,21-016365-1,2021-02-26T01:00:00+01:00,Restauration collective,Satisfaisant,,Restauration collective,48.841607,2.319963
4299,SAGAR MATHA,2 RUE FRANCOIS MOUTHON,75015,Paris 15e  Arrondissement,21-026352-1,2021-03-30T02:00:00+02:00,Restaurant,Satisfaisant,,Restaurant,48.838959,2.291468
4302,LE CAFE DU COMMERCE,113 AV LEDRU ROLLIN,75011,Paris 11e  Arrondissement,21-043181-1,2021-05-25T02:00:00+02:00,Restaurant,Très satisfaisant,,Restaurant,48.853091,2.377002
4306,POINT DU JOUR,228 AVENUE DE VERSAILLES,75016,Paris 16e  Arrondissement,21-032360-1,2021-04-26T02:00:00+02:00,Restauration collective,Satisfaisant,,Restauration collective,48.843833,2.269852
4309,THAI TIME,7 RUE CROZATIER,75012,Paris 12e  Arrondissement,21-029255-1,2021-04-12T02:00:00+02:00,Restaurant,Satisfaisant,,Restaurant,48.845483,2.382572
4313,TIMI SUSHI,110 RUE MONTMARTRE,75002,Paris 2e  Arrondissement,21-025304-1,2021-03-25T01:00:00+01:00,Restaurant,Satisfaisant,,Restaurant,48.867592,2.343984
4317,POISSONNERIE LE NARVAL,4 RUE DESAIX,75015,Paris 15e  Arrondissement,21-045400-1,2021-06-03T02:00:00+02:00,Poissonnerie,Très satisfaisant,,Poissonnerie,48.854539,2.295014
4318,ELLA,14 RUE DU FAUBOURG SAINT DENIS,75010,Paris 10e  Arrondissement,20-083681-1,2020-12-01T01:00:00+01:00,Restaurant,Satisfaisant,,Restaurant,48.870439,2.353139
4320,LE BON PECHEUR,9 RUE DES PRECHEURS,75001,Paris 1er Arrondissement,21-043246-1,2021-06-02T02:00:00+02:00,Restaurant,Satisfaisant,,Restaurant,48.861993,2.348516
4323,EXTERIEUR QUAI,5 RUE D ALSACE,75010,Paris 10e  Arrondissement,21-043298-1,2021-06-03T02:00:00+02:00,Restaurant,Satisfaisant,,Restaurant,48.876741,2.357604
4350,THAI HOUSE,42 RUE RODIER,75009,Paris 9e  Arrondissement,21-073912-1,2021-09-16T02:00:00+02:00,Restaurant,Satisfaisant,,Restaurant,48.879514,2.34347
4354,LES MALICIEUX DE BACON,9 RUE ROGER BACON,75017,Paris 17e  Arrondissement,21-034545-1,2021-05-03T02:00:00+02:00,Restauration collective,Satisfaisant,,Restauration collective,48.882702,2.289442
4359,KIYOMIZU,4 RUE SAINT PHILIPPE DU ROULE,75008,Paris 8e  Arrondissement,21-042749-1,2021-06-01T02:00:00+02:00,Restaurant,Satisfaisant,,Restaurant,48.873247,2.308678
4363,TARTERIE LEPIC,26 RUE LEPIC,75018,Paris 18e  Arrondissement,21-028461-1,2021-02-04T01:00:00+01:00,Commerce alimentaire,Très satisfaisant,,,48.885264,2.334327
4364,LE DIAMANT DE PARIS,59 RUE SERVAN,75011,Paris 11e  Arrondissement,21-057643-1,2021-07-19T02:00:00+02:00,Restaurant,Satisfaisant,,Restaurant,48.863029,2.381594
4366,NSP,114 AV JEAN JAURES,75019,Paris 19e  Arrondissement,21-089179-1,2021-10-02T02:00:00+02:00,Libre service|Alimentation générale,Satisfaisant,,Libre service|Alimentation générale,48.885951,2.382909
4390,SARL RESTAURANT TUG BA NAZAR,161 RUE DE ROME,75017,Paris 17e  Arrondissement,21-010731-1,2021-02-09T01:00:00+01:00,Restaurant,Satisfaisant,,Restaurant,48.887,2.314688
4408,L'ANNEXE CADET,117 RUE DE BELLEVILLE,75019,Paris 19e  Arrondissement,21-043902-1,2021-05-26T02:00:00+02:00,Restaurant,Satisfaisant,,Restaurant,48.874754,2.387627
4410,RESTAURANT CHEZ CHUNG,"49, BOULEVARD GOUVION SAINT-CYR",75017,Paris 17e  Arrondissement,21-036209-1,2021-05-06T02:00:00+02:00,Restaurant,Satisfaisant,,Restaurant,48.882013,2.28626
4412,LA VIE CLAIRE,16 RUE DU GRENIER SAINT LAZARE,75003,Paris 3e  Arrondissement,21-067372-1,2021-08-26T02:00:00+02:00,Boulangerie-Pâtisserie,Très satisfaisant,,Boulangerie-Pâtisserie,48.862967,2.353603
4421,ARAVINTH,15 AV TRUDAINE,75009,Paris 9e  Arrondissement,21-043478-1,2021-05-20T02:00:00+02:00,Libre service|Alimentation générale,Très satisfaisant,,Libre service|Alimentation générale,48.881495,2.345006
4424,ECOLE MATERNELLE,"99, RUE DES PYRENEES",75020,Paris 20e  Arrondissement,21-043516-1,2021-06-02T02:00:00+02:00,Transport de denrées alimentaires,Satisfaisant,,,48.85515,2.405218
4425,PAGE 35,"4, RUE DU PARC ROYAL",75003,Paris 3e  Arrondissement,21-062280-1,2021-08-03T02:00:00+02:00,Restaurant,Satisfaisant,,Restaurant,48.858386,2.36385
4428,20 EIFFEL,RESTAURANT 20 EIFFEL,75007,Paris 7e  Arrondissement,21-043375-1,2021-06-03T02:00:00+02:00,Restaurant,Satisfaisant,,Restaurant,48.857739,2.294844
4430,AL AMANA,191 RUE DE CRIMEE,75019,Paris 19e  Arrondissement,21-043559-1,2021-06-03T02:00:00+02:00,Boucherie-Charcuterie,Satisfaisant,,Boucherie-Charcuterie,48.891024,2.376153
4439,ISTR,41 RUE NOTRE DAME DE NAZARETH,75003,Paris 3e  Arrondissement,21-022508-1,2021-03-16T01:00:00+01:00,Restaurant,Très satisfaisant,,Restaurant,48.867496,2.357581
4451,RESTAURANT EMERAUDE OSCAR ROTY,107 RUE DE LOURMEL,75015,Paris 15e  Arrondissement,21-006149-1,2021-01-25T01:00:00+01:00,Restauration collective,Satisfaisant,,Restauration collective,48.842921,2.286317
4452,PHL RESTAURATION,19 RUE DE JOUY,75004,Paris 4e  Arrondissement,21-074064-1,2021-09-14T02:00:00+02:00,Restaurant,Très satisfaisant,,Restaurant,48.855307,2.357724
4477,HADHOUDA,32 RUE DU FAUBOURG DU TEMPLE,75011,Paris 11e  Arrondissement,21-044034-1,2021-05-26T02:00:00+02:00,Restaurant,Satisfaisant,,Restaurant,48.868909,2.3681
4484,MONOP',135 RUE SAINT MARTIN,75004,Paris 4e  Arrondissement,21-064889-1,2021-08-16T02:00:00+02:00,Libre service,Satisfaisant,,Libre service,48.861228,2.351335
4494,LA GOURMANDISE ERIC,22 AVENUE MAC MAHON,75017,Paris 17e  Arrondissement,21-075908-1,2021-09-20T02:00:00+02:00,Restaurant,Satisfaisant,,Restaurant,48.878063,2.29457
4514,ASSANABEL,6 RUE PIERRE CHAUSSON,75010,Paris 10e  Arrondissement,21-009308-1,2021-02-04T01:00:00+01:00,Restaurant,Satisfaisant,,Restaurant,48.870518,2.360422
4516,NACHITOS CHICKEN,235 RUE DE CRIMEE,75019,Paris 19e  Arrondissement,21-043539-1,2021-05-25T02:00:00+02:00,Restaurant,Satisfaisant,,Restaurant,48.893301,2.373644
4525,TAKE TOOK,2 RUE DU TUNNEL,75019,Paris 19e  Arrondissement,21-094165-1,2021-11-22T01:00:00+01:00,Restaurant,Satisfaisant,,Restaurant,48.878935,2.385487
4527,DALLOYAU,99 RUE DU FAUBOURG SAINT HONORE,75008,Paris 8e  Arrondissement,21-049707-1,2021-06-22T02:00:00+02:00,Métier de bouche,Satisfaisant,,,48.872243,2.312055
4536,COFFEE PARISIEN,4 RUE PRINCESSE,75006,Paris 6e  Arrondissement,21-009929-1,2021-01-27T01:00:00+01:00,Restaurant,Satisfaisant,,Restaurant,48.852544,2.334409
4540,NORIETA,40 RUE LOUIS BLANC,75010,Paris 10e  Arrondissement,21-026131-1,2021-03-30T02:00:00+02:00,Restaurant,Satisfaisant,,Restaurant,48.881652,2.364387
4542,BEAUREPAIRE,1 RUE DE LA BUCHERIE,75005,Paris 5e  Arrondissement,21-076565-1,2021-09-24T02:00:00+02:00,Restaurant,Satisfaisant,,Restaurant,48.851309,2.349119
4547,THE FREEDOM,8 RUE DE BERRI,75008,Paris 8e  Arrondissement,21-046137-1,2021-06-11T02:00:00+02:00,Restaurant,Très satisfaisant,,Restaurant,48.872258,2.304016
4568,RESTAURANT MOMIDJI - SARL TTH,9 RUE DU HANOVRE,75002,Paris 2e  Arrondissement,21-036695-1,2021-05-06T02:00:00+02:00,Restaurant,Satisfaisant,,Restaurant,48.870138,2.335103
4575,MAGENDIS,12 BOULEVARD MAGENTA,75010,Paris 10e  Arrondissement,21-044401-1,2021-05-10T02:00:00+02:00,Libre service,Très satisfaisant,,Libre service,48.869614,2.362288
4578,SARAY ISTAMBUL,33 AVENUE CORENTIN CARIOU,75019,Paris 19e  Arrondissement,21-020819-1,2021-03-01T01:00:00+01:00,Restaurant,Satisfaisant,,Restaurant,48.897471,2.385017
4582,SARL WAFA,32 RUE DU MAROC,75019,Paris 19e  Arrondissement,21-082352-1,2021-10-12T02:00:00+02:00,Boucherie-Charcuterie,Satisfaisant,,Boucherie-Charcuterie,48.887089,2.36794
4589,LES MALICIEUX DE PONDICHERY,20 RUE DE PONDICHERY,75015,Paris 15e  Arrondissement,21-072982-1,2021-09-15T02:00:00+02:00,Restauration collective,Très satisfaisant,,Restauration collective,48.849657,2.297333
4592,LES MALICIEUX DE JAVEL,187 RUE DE JAVEL,75015,Paris 15e  Arrondissement,21-084290-1,2021-10-18T02:00:00+02:00,Restauration collective,Très satisfaisant,,Restauration collective,48.840398,2.292275
4594,KADOYA,10 RUE THERESE,75001,Paris 1er Arrondissement,21-026509-1,2021-03-30T02:00:00+02:00,Restaurant,Très satisfaisant,,Restaurant,48.866203,2.335666
4600,JAPAN EAT,231 BOULEVARD VOLTAIRE,75011,Paris 11e  Arrondissement,21-073051-1,2021-09-14T02:00:00+02:00,Restaurant,Satisfaisant,,Restaurant,48.851355,2.39126
4608,ELIBE,151 RUE SAINT-CHARLES,75015,Paris 15e  Arrondissement,21-025051-1,2021-03-23T01:00:00+01:00,Libre service,Très satisfaisant,,Libre service,48.842691,2.282267
4619,LA FEDERATION DES MALICIEUX,39 RUE DE LA FEDERATION,75015,Paris 15e  Arrondissement,21-080304-1,2021-10-06T02:00:00+02:00,Restauration collective,Très satisfaisant,,Restauration collective,48.853958,2.293841
4620,PIZZERIA D'AUTEUIL,81 RUE LA FONTAINE,75016,Paris 16e  Arrondissement,21-077720-1,2021-09-28T02:00:00+02:00,Restaurant,Satisfaisant,,Restaurant,48.848599,2.265598
4628,BAT PETITE ENFANCE,22 T RUE DES JARDINS ST PAUL,75004,Paris 4e  Arrondissement,21-040884-1,2021-05-25T02:00:00+02:00,Restauration collective,Satisfaisant,,Restauration collective,48.853728,2.360948
4636,YEMA FOOD,41 RUE GODOT DE MAUROY,75009,Paris 9e  Arrondissement,21-009248-1,2021-02-04T01:00:00+01:00,Restaurant,Satisfaisant,,Restaurant,48.872597,2.327452
4640,COUTIN DIDAY,51 RUE BLANCHE,75009,Paris 9e  Arrondissement,21-043867-1,2021-06-03T02:00:00+02:00,Restaurant,Satisfaisant,,Restaurant,48.881027,2.331446
