,APP_Libelle_etablissement,Adresse_2_UA,Code_postal,Libelle_commune,Numero_inspection,Date_inspection,APP_Libelle_activite_etablissement,Synthese_eval_sanit,Agrement,filtre,lat,lon
23,INTERMARCHE (FREDEC),AV GENERAL LECLERC,91190,GIF SUR YVETTE,16051490,2021-06-22T02:00:00+02:00,Alimentation générale,Très satisfaisant,,Alimentation générale,48.704444,2.116187
41,MC DONALD'S (VIBO),23 AV SADI CARNOT,91160,SAULX LES CHARTREUX,16241280,2021-11-19T01:00:00+01:00,Restaurant,Très satisfaisant,,Restaurant,48.672988,2.278845
46,CHEZ TRING,131 RUE DE PARIS,91120,PALAISEAU,16025737,2021-05-18T02:00:00+02:00,Boucherie-Charcuterie,Satisfaisant,,Boucherie-Charcuterie,48.712869,2.244052
58,THERY CHRISTINE,26 R PASTEUR,91710,VERT LE PETIT,16015057,2021-05-26T02:00:00+02:00,_,Satisfaisant,,,48.546767,2.364934
66,BARRERO TRAITEUR,33 R DENIS PAPIN,91240,SAINT MICHEL SUR ORGE,16026765,2021-06-04T02:00:00+02:00,Traiteur,Satisfaisant,,Traiteur,48.626299,2.312609
86,MC DO (PIMM),RTE DE LA NOUE,91190,GIF SUR YVETTE,16036495,2021-06-10T02:00:00+02:00,Restaurant,Très satisfaisant,,Restaurant,48.701663,2.100917
98,S.N.C. RESTO MONTLHERY - LEON DE BRUXELLES,113 ROUTE DE MONTLHERY,91310,MONTLHERY,16126813,2021-08-16T02:00:00+02:00,Restaurant,Satisfaisant,,Restaurant,48.634962,2.287348
115,PIZZA PRESTO (GAYA),9 BD ABEL CORNATON,91290,ARPAJON,15960545,2021-04-06T02:00:00+02:00,Restaurant,Satisfaisant,,Restaurant,48.587253,2.247824
225,AUX DELICES DE PORT SUD (AUGUSTO VAZ PHILIPPE),CENTRE COMMERCIAL PORT SUD,91650,BREUILLET,15955195,2021-04-01T02:00:00+02:00,Boulangerie-Pâtisserie,Satisfaisant,,Boulangerie-Pâtisserie,48.572917,2.189796
226,ALLO SUSHI (LAARADH MABROUK),7 RUE AUGUSTIN BELLARD,91590,LA FERTE ALAIS,16306783,2022-01-11T01:00:00+01:00,Restaurant,A améliorer,,Restaurant,48.483221,2.346947
232,BOULANGERIE MARIE BLACHERE (COTE BOULANGE),66 RTE DE MONTLHERY,91400,ORSAY,16073434,2021-07-06T02:00:00+02:00,Boulangerie-Pâtisserie,Satisfaisant,,Boulangerie-Pâtisserie,48.686789,2.184771
245,AUX DELICES DU FOURNIL (AUX DELICES DU FOURNIL),29 RUE DU MARTROY,91610,BALLANCOURT SUR ESSONNE,16226027,2021-11-05T01:00:00+01:00,Boulangerie-Pâtisserie,Satisfaisant,,Boulangerie-Pâtisserie,48.524649,2.381723
269,LES COLOMBES DE BELLEJAME (BSF),97 RUE ALFRED DUBOIS,91460,MARCOUSSIS,16316258,2022-01-21T01:00:00+01:00,Restaurant,Satisfaisant,,Restaurant,48.639844,2.241435
272,AU DUC D ORSAY (BOULANGERIE PATISSERIE MILLET),14 RUE BOURSIER,91400,ORSAY,16040042,2021-06-14T02:00:00+02:00,Boulangerie-Pâtisserie,Satisfaisant,,Boulangerie-Pâtisserie,48.697991,2.187763
275,TAJ PALACE (BALA JI),114 RUE DE SAINTE GENEVIEVE,91240,SAINT MICHEL SUR ORGE,16028988,2021-06-07T02:00:00+02:00,Restaurant,Très satisfaisant,,Restaurant,48.63863,2.318984
276,LA FLAMME (LA FLAMME),136 AV DE LA DIVISION LECLERC,91310,LINAS,16121500,2021-08-09T02:00:00+02:00,Restaurant,Satisfaisant,,Restaurant,48.626455,2.262572
290,LEROY SABOUH,29 GRANDE RUE,91580,ETRECHY,16030361,2021-05-11T02:00:00+02:00,Boulangerie-Pâtisserie,Satisfaisant,,Boulangerie-Pâtisserie,48.492872,2.191428
302,L ORIENTAL (L ORIENTAL),175 AV HENRI BARBUSSE,91270,VIGNEUX SUR SEINE,16323852,2022-01-27T01:00:00+01:00,Restaurant,Satisfaisant,,Restaurant,48.703634,2.43202
317,C D R,129 RUE PDT FRANCOIS MITTERRAND,91160,LONGJUMEAU,16072157,2021-07-06T02:00:00+02:00,Restaurant,Satisfaisant,,Restaurant,48.693596,2.293326
324,SHEHERAZADE (SCHEHERAZADE),193 AV GENERAL LECLERC,91190,GIF SUR YVETTE,16292517,2021-12-21T01:00:00+01:00,Restaurant,A améliorer,,Restaurant,48.703634,2.101519
325,KFC (CPE5VILLABE),PLAINE DES BRATEAUX,91100,VILLABE,15968546,2021-04-14T02:00:00+02:00,Restaurant,Satisfaisant,,Restaurant,48.590254,2.441931
333,SARL FRANCK MARTIN,6 RUE DE CHARTRES,91410,DOURDAN,16111629,2021-07-29T02:00:00+02:00,Boulangerie-Pâtisserie,Satisfaisant,,Boulangerie-Pâtisserie,48.529368,2.012457
345,SYBELLE,2 RUE DE PARON,91370,VERRIERES LE BUISSON,16046096,2021-06-17T02:00:00+02:00,Alimentation générale,Très satisfaisant,,Alimentation générale,48.747164,2.265699
380,PRONTO PIZZA,21  GRANDE RUE,91720,MAISSE,16262317,2021-12-03T01:00:00+01:00,Restaurant,A améliorer,,Restaurant,48.394075,2.378599
394,MERVEILLE D ASIE (ASIA WOK),4 ESPACE DES 3 QUARTIERS,91400,GOMETZ LA VILLE,16309773,2022-01-14T01:00:00+01:00,Restaurant,Satisfaisant,,Restaurant,48.669354,2.121125
400,"Chez Maria ""Churrasqueira"" (SARL CARVA)",18 VOIE DU MORT RU,91310,LONGPONT SUR ORGE,16038262,2021-06-11T02:00:00+02:00,Restaurant,Satisfaisant,,Restaurant,48.652964,2.275912
426,VIA PIZZA (MDA),RUE BOIELDIEU,91240,SAINT MICHEL SUR ORGE,16039911,2021-06-14T02:00:00+02:00,Restaurant,Satisfaisant,,Restaurant,48.630796,2.319023
444,AU FOUR AU MOULIN (MARGAUTINE),35 RUE DU GENERAL DE GAULLE,91610,BALLANCOURT SUR ESSONNE,16061428,2021-06-29T02:00:00+02:00,Boulangerie-Pâtisserie,Très satisfaisant,,Boulangerie-Pâtisserie,48.524654,2.384702
448,LE GOUT DU PARADIS,32 RUE DE LA PAPETERIE,91610,BALLANCOURT SUR ESSONNE,16012179,2021-05-25T02:00:00+02:00,Boulangerie-Pâtisserie,Satisfaisant,,Boulangerie-Pâtisserie,48.527689,2.373287
452,AUX PETITS MACARONS,1 AV DE LA LIBERATION,91150,ETAMPES,16002144,2021-05-07T02:00:00+02:00,Boulangerie-Pâtisserie,Satisfaisant,,Boulangerie-Pâtisserie,48.433145,2.15554
471,CREATIONS CHOCOLAT,68 AVENUE DE PARIS,91790,BOISSY SOUS SAINT YON,15970534,2021-04-15T02:00:00+02:00,Chocolatier,Très satisfaisant,,Chocolatier,48.546608,2.21542
474,AU PAIN GAULOIS,4 RUE LUCIEN SAMPAIX,91390,MORSANG SUR ORGE,15977137,2021-04-21T02:00:00+02:00,Boulangerie-Pâtisserie,Satisfaisant,,Boulangerie-Pâtisserie,48.65508,2.356466
496,ENTRE LA POIRE ET LE FROMAGE,11 GRANDE RUE,91470,LES MOLIERES,16038611,2021-06-11T02:00:00+02:00,Alimentation générale,Très satisfaisant,,Alimentation générale,48.672207,2.06771
530,MADAME IDALIA MEAUX,36 AVENUE MAZARIN,91380,CHILLY MAZARIN,16079601,2021-07-06T02:00:00+02:00,Boulangerie-Pâtisserie,A améliorer,,Boulangerie-Pâtisserie,48.705454,2.314732
531,HERACLES,9 RUE D AUVERGNE,91120,PALAISEAU,16078176,2021-07-08T02:00:00+02:00,Restaurant,Très satisfaisant,,Restaurant,48.714687,2.247792
532,L'AROME (FURCIA),17 R DU DOCTEUR BABIN,91470,FORGES LES BAINS,16337180,2022-02-11T01:00:00+01:00,Restaurant,Très satisfaisant,,Restaurant,48.627719,2.101847
553,AU PAIN DE SUCRE (MONSIEUR LAURENT HOUDUSSE),3 B RUE JEAN JAURES,91700,VILLIERS SUR ORGE,16011319,2021-05-25T02:00:00+02:00,Boulangerie-Pâtisserie,Très satisfaisant,,Boulangerie-Pâtisserie,48.657929,2.30153
559,BATEAU CHOCOLATE,13 RUE ALFRED DE VIGNY,91780,CHALO SAINT MARS,16168139,2021-09-16T02:00:00+02:00,_,A améliorer,,,48.427865,2.058055
560,LE BISTROT DE GIF (ORCEENNE D'INVESTISSEMENTS),10 ALL DU VAL FLEURY,91190,GIF SUR YVETTE,16159168,2021-09-14T02:00:00+02:00,Restaurant,Satisfaisant,,Restaurant,48.70219,2.136272
566,CHICKEN SQUARE,2 RUE DES EGLANTIERS,91700,SAINTE GENEVIEVE DES BOIS,15977147,2021-04-21T02:00:00+02:00,Restaurant,Satisfaisant,,Restaurant,48.638496,2.330787
581,JSC MOREIRA,49 RUE DE MONTLHERY,91240,SAINT MICHEL SUR ORGE,15949522,2021-03-29T02:00:00+02:00,Boulangerie-Pâtisserie,Très satisfaisant,,Boulangerie-Pâtisserie,48.634772,2.303172
600,FAMILY BURGER (BHA),124 AV FRANCOIS MITTERRAND,91200,ATHIS MONS,16237453,2021-11-16T01:00:00+01:00,Restaurant,Très satisfaisant,,Restaurant,48.706721,2.371681
604,SAS LAWSON,6 Avenue de l'Océanie,91940,LES ULIS,15980936,2021-04-09T02:00:00+02:00,Restaurant,Très satisfaisant,,Restaurant,48.679475,2.200896
626,CEDRE D'OR,22 VOIE DU MORT RU,91310,LONGPONT SUR ORGE,16048068,2021-06-18T02:00:00+02:00,Traiteur,Très satisfaisant,,Traiteur,48.653103,2.276008
631,PIANETA,5 BD NELATON,91460,MARCOUSSIS,16053780,2021-06-22T02:00:00+02:00,_,Satisfaisant,,,48.642545,2.228926
652,SUSHI GOURMET VILLEBON,chemin de briis,91140,VILLEBON SUR YVETTE,15989222,2021-04-30T02:00:00+02:00,Traiteur,Très satisfaisant,,Traiteur,48.705718,2.254734
657,PLANETE PIZZA (KHMA),4 RUE DE LA CITE,91580,ETRECHY,16193586,2021-10-08T02:00:00+02:00,Restaurant,Satisfaisant,,Restaurant,48.492741,2.190651
659,DELICIA PIZZA - MDK (NADIA),11 RUE DE MONTLHERY,91310,LONGPONT SUR ORGE,16069087,2021-06-25T02:00:00+02:00,Restaurant,Très satisfaisant,,Restaurant,48.634562,2.289303
665,BONHEUR 2,17 PL DU MARCHE,91310,MONTLHERY,16128654,2021-08-17T02:00:00+02:00,Restaurant,Satisfaisant,,Restaurant,48.639178,2.270497
670,L'ORIGAN,8 VOIE DU MORT RU,91310,LONGPONT SUR ORGE,16068404,2021-07-02T02:00:00+02:00,Restaurant,Très satisfaisant,,Restaurant,48.652321,2.275453
679,BOULANGERIE - PATISSERIE LA PLACE,1 PL JEAN MONNET,91170,VIRY CHATILLON,15964793,2021-04-12T02:00:00+02:00,Boulangerie-Pâtisserie,A améliorer,,Boulangerie-Pâtisserie,48.681198,2.371204
680,OSAKA (JUBAOPEN),2 PL DE LA REPUBLIQUE,91400,ORSAY,16330651,2022-02-07T01:00:00+01:00,Restaurant,Satisfaisant,,Restaurant,48.696797,2.184723
754,AKSARAY 68,44 GRANDE RUE,91290,ARPAJON,16169121,2021-09-21T02:00:00+02:00,Restaurant,Très satisfaisant,,Restaurant,48.591371,2.247647
767,LA CAVE DE L HUREPOIX,2 RUE DE PARIS,91470,LIMOURS,16096874,2021-07-22T02:00:00+02:00,_,Très satisfaisant,,,48.646234,2.076141
776,LA BOITE A CHOUX,31 AV DU GENERAL DE GAULLE,91530,SAINT CHERON,16002178,2021-05-11T02:00:00+02:00,Boulangerie-Pâtisserie,Satisfaisant,,Boulangerie-Pâtisserie,48.553374,2.122944
801,CROUSTI POULET (NALAN),AV DE MOUSSEAU,91000,EVRY COURCOURONNES,16319034,2022-01-25T01:00:00+01:00,Restaurant,Satisfaisant,,Restaurant,48.62932,2.452371
817,PRORESTO LES ULIS,124 AV DES CHAMPS LASNIERS,91940,LES ULIS,16025076,2021-06-03T02:00:00+02:00,Restaurant,A améliorer,,Restaurant,48.684148,2.170113
831,LA REINE DU BLE,17 PL DE LA COMMUNE,91000,EVRY COURCOURONNES,16011273,2021-05-21T02:00:00+02:00,Boulangerie-Pâtisserie,A améliorer,,Boulangerie-Pâtisserie,48.621886,2.440849
834,NEW JAPAN ZHENG,31 RTE D ORLEANS RN 20,91310,MONTLHERY,16128697,2021-08-17T02:00:00+02:00,Restaurant,Satisfaisant,,Restaurant,48.640091,2.267813
841,LMDT FLEURY,5 RUE DU CHENE A CHAMPAGNE,91700,FLEURY MEROGIS,16196884,2021-10-12T02:00:00+02:00,Restaurant,Satisfaisant,,Restaurant,48.64321,2.36307
851,SAS BLAINVILLE,18 GRANDE RUE,91650,BREUILLET,16077413,2021-07-08T02:00:00+02:00,Boulangerie-Pâtisserie,A améliorer,,Boulangerie-Pâtisserie,48.56617,2.171015
861,LA FOURMI VERTE,88 RUE CHARLES DE GAULLE,91440,BURES SUR YVETTE,16046162,2021-06-17T02:00:00+02:00,Alimentation générale,Très satisfaisant,,Alimentation générale,48.696553,2.155035
864,AGOUSSIF,RUE BOIELDIEU,91240,SAINT MICHEL SUR ORGE,15986226,2021-04-27T02:00:00+02:00,Boulangerie-Pâtisserie,A améliorer,,Boulangerie-Pâtisserie,48.630796,2.319023
878,PIZZA SERVICE,42 GRANDE RUE,91840,SOISY SUR ECOLE,16133584,2021-08-17T02:00:00+02:00,Restaurant,A améliorer,,Restaurant,48.476003,2.49301
896,ANGE ROAD,6 RUE DES PETITS CHAMPS,91100,VILLABE,15968578,2021-04-14T02:00:00+02:00,Boulangerie-Pâtisserie,Satisfaisant,,Boulangerie-Pâtisserie,48.592905,2.439974
952,ILLICO PIZZA,8 RUE BERTHOLLET,91710,VERT LE PETIT,16061046,2021-06-29T02:00:00+02:00,Restaurant,Satisfaisant,,Restaurant,48.541604,2.366251
959,AUX DELICES D'AURICA ET FRANCOIS (AUX DELICES D'AURICA ET FRANCOIS),30 RUE DE LA LIBERATION,91680,BRUYERES LE CHATEL,16007637,2021-05-18T02:00:00+02:00,Boulangerie-Pâtisserie,Très satisfaisant,,Boulangerie-Pâtisserie,48.593465,2.191839
960,THAI FOOD FUSION (ID LAB),4 place des Fédérés,91000,EVRY COURCOURONNES,15990850,2021-05-03T02:00:00+02:00,Restaurant,Satisfaisant,,Restaurant,48.619571,2.445131
961,VINVIN,9 RUE DE LA FERTE ALAIS,91720,MAISSE,16187425,2021-10-05T02:00:00+02:00,Restaurant,Satisfaisant,,Restaurant,48.394521,2.375704
976,O C T - TRADITION,11 MAIL PIERRE POTIER,91190,GIF SUR YVETTE,16055543,2021-06-24T02:00:00+02:00,Boulangerie-Pâtisserie,Satisfaisant,,Boulangerie-Pâtisserie,48.711055,2.163662
987,GRAINE D'ARTISTE EVRY 2,2 BD DE L'EUROPE,91000,EVRY COURCOURONNES,16072406,2021-07-05T02:00:00+02:00,Boulangerie-Pâtisserie,Satisfaisant,,Boulangerie-Pâtisserie,48.636027,2.41352
1010,MILLES DELICES,104 RUE BERLIOZ,91240,SAINT MICHEL SUR ORGE,16214761,2021-10-26T02:00:00+02:00,Boulangerie-Pâtisserie,A améliorer,,Boulangerie-Pâtisserie,48.636346,2.321267
1028,PIZZA EXPRESS,9 B RUE GRANDE,91510,LARDY,16205377,2021-10-19T02:00:00+02:00,Restaurant,Satisfaisant,,Restaurant,48.51791,2.261098
1053,LE KIN DI THAI,5 AV SAINT SAENS,91240,SAINT MICHEL SUR ORGE,16028964,2021-06-07T02:00:00+02:00,Restaurant,Satisfaisant,,Restaurant,48.635845,2.319089
1068,MAISON DUCHEMIN (ARPATISS),61 GRANDE RUE,91290,ARPAJON,16060777,2021-06-29T02:00:00+02:00,Boulangerie-Pâtisserie,Très satisfaisant,,Boulangerie-Pâtisserie,48.589908,2.248628
1081,BOULANGERIE DE LA MAIRIE,15 RUE DES PROCESSIONS,91240,SAINT MICHEL SUR ORGE,16007909,2021-05-20T02:00:00+02:00,Boulangerie-Pâtisserie,Très satisfaisant,,Boulangerie-Pâtisserie,48.629799,2.303255
1120,LA BOULANG' DE SOISY,RUE DE L'ERMITAGE,91450,SOISY SUR SEINE,16223683,2021-11-03T01:00:00+01:00,Boulangerie-Pâtisserie,Satisfaisant,,Boulangerie-Pâtisserie,48.652558,2.455918
1122,SUSHI SAKURA / TACOS BD (RJS),7 PL DE L'EGLISE,91850,BOURAY SUR JUINE,16187341,2021-10-05T02:00:00+02:00,Restaurant,Satisfaisant,,Restaurant,48.520436,2.297929
1153,EPI DE L'ORGE,4 VOIE DU MORT RU,91310,LONGPONT SUR ORGE,16068100,2021-07-02T02:00:00+02:00,Boulangerie-Pâtisserie,A améliorer,,Boulangerie-Pâtisserie,48.652431,2.275542
1156,GRILL ISTANBUL (MELISA),2 VOIE DU MORT RU,91310,LONGPONT SUR ORGE,16037683,2021-06-11T02:00:00+02:00,Restaurant,Satisfaisant,,Restaurant,48.652357,2.275482
1165,LA REINE DE BLE,7 RUE CHARLES DE GAULLE,91530,SAINT CHERON,16155306,2021-09-08T02:00:00+02:00,Boulangerie-Pâtisserie,A améliorer,,Boulangerie-Pâtisserie,48.553715,2.124575
1168,SOUNESS,3 RUE FRETAY,91140,VILLEJUST,16019460,2021-05-28T02:00:00+02:00,Restaurant,Satisfaisant,,Restaurant,48.682953,2.23629
1226,LES 1001 KEBAB,134 RUE DE PARIS,91120,Palaiseau,22-000821-1,2022-01-07T01:00:00+01:00,Restaurant,A améliorer,,Restaurant,48.713542,2.24438
1411,CDE,88 AVENUE CHARLES DE GAULLE,91230,Montgeron,21-051876-1,2021-06-21T02:00:00+02:00,Restauration collective,Très satisfaisant,91421001.0,Restauration collective,48.695683,2.453879
1592,SAFAR SAID,1 R JEANNE D ARC,91300,Massy,21-074721-1,2021-09-17T02:00:00+02:00,Restaurant,Satisfaisant,,Restaurant,48.732938,2.265128
1739,COLLEGE MONDETOUR,4 RUE DES LORRAINS,91940,Les Ulis,22-006344-1,2022-01-27T01:00:00+01:00,Restauration collective,Très satisfaisant,,Restauration collective,48.68447,2.179795
1868,McDonald's Vigneux sur seine,PLACE ARBRE DE LA LIBERTE,91270,Vigneux-sur-Seine,21-029553-1,2021-04-13T02:00:00+02:00,Restaurant,Très satisfaisant,,Restaurant,48.69629,2.416954
1920,QUADRATURE RESTAURATION,9 RUE GODEAUME,91640,Fontenay-lès-Briis,21-090954-1,2021-11-08T01:00:00+01:00,Restauration collective,Très satisfaisant,91243001.0,Restauration collective,48.613053,2.174552
2151,CARREFOUR,rue de l'Aubrac,91940,Les Ulis,21-058435-1,2021-07-09T02:00:00+02:00,Libre service,Satisfaisant,,Libre service,48.677394,2.173088
2290,IKEA,2 RUE DU CLOS AUX POIS,91090,Lisses,22-001854-1,2022-01-12T01:00:00+01:00,Restaurant,Très satisfaisant,,Restaurant,48.598027,2.438058
2314,METRO FRANCE,La pièce de la remise,91090,Lisses,21-046599-1,2021-06-14T02:00:00+02:00,Découpe de viande de boucherie,Très satisfaisant,91340005.0,,48.609801,2.436817
2559,EHPAD DEGOMMIER,"12, rue Degommier",91590,Cerny,21-030585-1,2021-04-19T02:00:00+02:00,Restauration collective,Satisfaisant,,Restauration collective,48.477869,2.331713
2617,ECOLE PRIMAIRE PUBLIQUE LE CLOS,RUE DU LAC,91250,Tigery,21-080640-1,2021-10-05T02:00:00+02:00,Restauration collective,Satisfaisant,,Restauration collective,48.644085,2.507075
2658,ECOLE MATERNELLE PUBLIQUE PABLO NERUDA,CHEMIN PABLO NERUDA,91940,Gometz-le-Châtel,22-002445-1,2022-01-17T01:00:00+01:00,Restauration collective,Satisfaisant,,Restauration collective,48.680499,2.143161
2729,MINI CRECHE KORCZAK,48 AVENUE ALBERT SARRAUT,91260,Juvisy-sur-Orge,21-046485-1,2021-06-08T02:00:00+02:00,Restauration collective,Très satisfaisant,,Restauration collective,48.69478,2.3574
2785,NATURALIA,49 AV DE LA COMMUNE DE PARIS,91220,Brétigny-sur-Orge,22-001572-1,2022-01-12T01:00:00+01:00,Rayon fromagerie|Rayon traiteur|Rayon boucherie-charcuterie,Très satisfaisant,,Rayon fromagerie|Rayon traiteur|Rayon boucherie-charcuterie,48.586531,2.301694
2975,FRESH BEEF,1 PL DE CHEVREUSE,91090,Lisses,22-002750-1,2022-01-18T01:00:00+01:00,Restaurant,Satisfaisant,,Restaurant,48.612118,2.418573
3159,S.A.S. ANDIS,14 RUE DU PONT LA FLEUR,91670,Angerville,21-063583-1,2021-08-10T02:00:00+02:00,Rayon poissonnerie,Très satisfaisant,,Rayon poissonnerie,48.318698,2.000882
3162,PREST-DISTRIBUTION,11-13 BOULEVARD DE L EUROPE,91320,Wissous,21-083692-1,2021-10-14T02:00:00+02:00,Transport de denrées alimentaires,Très satisfaisant,,,48.730956,2.33419
3165,S.A.S. ANDIS,14 RUE DU PONT LA FLEUR,91670,Angerville,21-063647-1,2021-08-10T02:00:00+02:00,Libre service,Très satisfaisant,,Libre service,48.318698,2.000882
3395,MOULIN DE VIRY,2 RUE HORACE DE CHOISEUL,91170,Viry-Châtillon,21-046937-1,2021-06-09T02:00:00+02:00,Restauration collective,Très satisfaisant,91687311.0,Restauration collective,48.668081,2.373872
3401,INTERMARCHE,BD MEDER,91170,Viry-Châtillon,22-003286-1,2022-01-19T01:00:00+01:00,Rayon traiteur|Rayon boucherie-charcuterie,Satisfaisant,,Rayon traiteur|Rayon boucherie-charcuterie,48.68156,2.382711
3446,MAD 91,15 RUE GUSTAVE EIFFEL,91420,Morangis,22-003525-1,2022-01-19T01:00:00+01:00,Entreposage de distribution de denrées alimentaires,Très satisfaisant,,,48.700165,2.339278
3480,VIRYDIS,MOULIN DE VIRY,91170,Viry-Châtillon,22-003255-1,2022-01-19T01:00:00+01:00,Rayon traiteur|Rayon boucherie-charcuterie,A améliorer,,Rayon traiteur|Rayon boucherie-charcuterie,48.664024,2.373411
3492,VIRYDIS,MOULIN DE VIRY,91170,Viry-Châtillon,22-003273-1,2022-01-19T01:00:00+01:00,Rayon poissonnerie,Très satisfaisant,,Rayon poissonnerie,48.664024,2.373411
3510,INTERMARCHE,BD MEDER,91170,Viry-Châtillon,22-003283-1,2022-01-19T01:00:00+01:00,Rayon boucherie-charcuterie,Très satisfaisant,,Rayon boucherie-charcuterie,48.68156,2.382711
3519,VIRYDIS,MOULIN DE VIRY,91170,Viry-Châtillon,22-003277-1,2022-01-19T01:00:00+01:00,Restaurant,Très satisfaisant,,Restaurant,48.664024,2.373411
3792,ECOL PRIM JULES FERRY,RUE JULES FERRY,91160,Longjumeau,21-101338-1,2021-11-19T01:00:00+01:00,Restauration collective,Très satisfaisant,,Restauration collective,48.687266,2.297906
4356,MAIRIE COMMUNE DE LONGPONT SUR ORGE,18 chemin de biron,91310,Longpont-sur-Orge,21-085031-1,2021-10-19T02:00:00+02:00,Restauration collective,Très satisfaisant,,Restauration collective,48.633575,2.284804
4587,CHATEAU DE CHAMPLATREUX (EHPAD),37 Allée Bourgoin,91250,Saintry-sur-Seine,21-038789-1,2021-05-06T02:00:00+02:00,Restauration collective,Très satisfaisant,,Restauration collective,48.603787,2.492166
4601,MAISON DE REPOS ET DE RETRAITE CENTRE DE GERONTOLOGIE LE CHATEAU DE VILLEMOISSON,"1, rue Hérault de Séchelles",91360,Villemoisson-sur-Orge,20-096632-1,2021-06-24T02:00:00+02:00,Restauration collective,Satisfaisant,,Restauration collective,48.666153,2.332638
4607,NATUREO,RUE MOLIERE,91520,Égly,22-006050-1,2022-01-26T01:00:00+01:00,Rayon boucherie-charcuterie,Très satisfaisant,,Rayon boucherie-charcuterie,48.580369,2.229693
4631,DELICE D'ORMOY,21 RUE DU SAULE SAINT JACQUES,91540,Ormoy,21-079099-1,2021-09-21T02:00:00+02:00,Restaurant,Très satisfaisant,,Restaurant,48.569773,2.464622
4769,INSTITUT MEDICO EDUCATIF,chateau de gillevoisin,91510,Janville-sur-Juine,22-005976-1,2022-01-26T01:00:00+01:00,Restauration collective,A améliorer,,Restauration collective,48.512401,2.240582
4780,IKEA,2 RUE DU CLOS AUX POIS,91090,Lisses,22-001708-1,2022-01-12T01:00:00+01:00,Restaurant,Très satisfaisant,,Restaurant,48.598027,2.438058
4783,IKEA,Le clos aux pois,91090,Lisses,22-001925-1,2022-01-12T01:00:00+01:00,Restauration collective,Très satisfaisant,,Restauration collective,48.597708,2.438177
4920,BOUCHERIE DU PARC LA VERVILLE,PARC DE VILLEROY,91540,Mennecy,21-102047-1,2021-12-14T01:00:00+01:00,Fromagerie|Traiteur|Boucherie-Charcuterie,Satisfaisant,,Fromagerie|Traiteur|Boucherie-Charcuterie,48.563481,2.429767
5250,MAJ,16 RUE DE LA DIVISION LECLERC,91300,Massy,21-077512-1,2021-09-28T02:00:00+02:00,Restaurant,Très satisfaisant,,Restaurant,48.729888,2.275028
5280,C.FROID,7/9 Avenue Jeanne Garnerin,91320,Wissous,21-066716-1,2021-08-24T02:00:00+02:00,Entreposage de distribution de denrées alimentaires,Satisfaisant,91689033.0,,48.728551,2.309199
5361,NATUREO,RUE PIERRE DE COUBERTIN,91330,Yerres,22-007184-1,2022-01-31T01:00:00+01:00,Rayon boucherie-charcuterie,Satisfaisant,,Rayon boucherie-charcuterie,48.713677,2.478844
5465,LE RELAX,1 RPT DES FETES,91210,Draveil,21-071980-1,2021-08-31T02:00:00+02:00,Restaurant,Très satisfaisant,,Restaurant,48.686292,2.396351
5611,M A S LE MASCARET,8 RUE DU LAC,91250,Tigery,21-034057-1,2021-04-30T02:00:00+02:00,Restauration collective,Très satisfaisant,,Restauration collective,48.643795,2.506377
5735,PICONI OFFICIEL,58 AV RAYMOND ARON,91300,Massy,20-096718-1,2021-08-04T02:00:00+02:00,Restaurant,Satisfaisant,,Restaurant,48.725633,2.256114
5856,THEMIS CHATEAU DRANEM,17 avenue de Rigny,91130,Ris-Orangis,21-025646-1,2021-03-23T01:00:00+01:00,Restauration collective,Très satisfaisant,91521157.0,Restauration collective,48.656956,2.40393
5968,RESIDENCE RETRAITE CINEMA ET SPECTACLE,"47, rue Gaston Grinbaum",91270,Vigneux-sur-Seine,21-049285-1,2021-06-14T02:00:00+02:00,Restauration collective,Très satisfaisant,,Restauration collective,48.691207,2.435177
5976,ORCA MAREE,11 BOULEVARD DE L'EUROPE,91320,Wissous,21-106754-1,2021-12-22T01:00:00+01:00,Mareyage et préparation de produits de la pêche,Satisfaisant,,,48.730956,2.33419
6065,RESIDENCE L'ERMITAGE,2 RUE DANIEL MAYER,91160,Longjumeau,21-106239-1,2021-12-01T01:00:00+01:00,Restauration collective,Satisfaisant,,Restauration collective,48.690582,2.303789
6076,COLLEGE LOUIS PASTEUR,18 RUE SOULINS,91800,Brunoy,22-000733-1,2022-01-07T01:00:00+01:00,Restauration collective,Satisfaisant,91114001.0,Restauration collective,48.702016,2.495405
6188,LE KIOSQUE A PIZZA,CHEMIN D ANGERVILLE,91660,Le Mérévillois,21-074081-1,2021-09-17T02:00:00+02:00,Restaurant,Très satisfaisant,,Restaurant,48.318556,2.081166
6247,DANONE RESEARCH,Route Départementale 128,91767,Palaiseau,21-095328-1,2021-11-23T01:00:00+01:00,Transformation de lait ou produits laitiers,Très satisfaisant,91477011.0,,,
6345,ARPAVIE,10 BOULEVARD DU GENERAL DE GAULLE,91660,Le Mérévillois,21-081883-1,2021-10-05T02:00:00+02:00,Restauration collective,Satisfaisant,,Restauration collective,48.318665,2.085902
6443,BOUSSYVAL,Avenue Jean MOULIN,91800,Boussy-Saint-Antoine,21-064924-1,2021-08-16T02:00:00+02:00,Restaurant,Très satisfaisant,,Restaurant,48.698989,2.53364
6610,INTERMARCHE,24 Boulevard Georges Michel,91100,Corbeil-Essonnes,22-001068-1,2022-01-10T01:00:00+01:00,Libre service,Très satisfaisant,,Libre service,48.607185,2.469425
6678,CITRONELLE,BD DE L'EUROPE,91000,Évry-Courcouronnes,22-009261-1,2022-02-08T01:00:00+01:00,Restaurant,Très satisfaisant,,Restaurant,48.630589,2.430109
6899,DAWANBI II,2 RUE JEAN ROSTAND,91300,Massy,22-004049-1,2022-01-20T01:00:00+01:00,Métier de bouche,A améliorer,,,48.736936,2.259819
6921,GRIGNY PIZZA SERVICE,12 CHE DU MOULIN,91350,Grigny,22-009574-1,2022-02-08T01:00:00+01:00,Restaurant,A améliorer,,Restaurant,48.658959,2.380592
6992,GROUPE HOSPITALIER LES CHEMINOTS,"14, rue Alphonse Daudet",91210,Draveil,21-029571-1,2021-04-14T02:00:00+02:00,Restauration collective,Très satisfaisant,91201018.0,Restauration collective,48.663934,2.421697
7093,AGORA,50 RTE DE CORBEIL,91350,Grigny,21-049630-1,2021-06-16T02:00:00+02:00,Restaurant,Satisfaisant,,Restaurant,48.655398,2.386247
7096,STREET PIZZA,STREET PIZZA,91350,Grigny,21-049627-1,2021-06-16T02:00:00+02:00,Restaurant,Satisfaisant,,Restaurant,48.65752,2.383052
7358,CUISINE CENTRALE D'OLLAINVILLE,7 RUE DES ECOLES,91340,Ollainville,22-011762-1,2022-02-16T01:00:00+01:00,Restauration collective,Très satisfaisant,91461003.0,Restauration collective,48.601468,2.234123
7442,BAY,11 rue Gustave Eiffel,91420,Morangis,22-010956-1,2022-01-19T01:00:00+01:00,Entreposage de distribution de denrées alimentaires,Très satisfaisant,91432037.0,,48.700474,2.33781
7684,ATX TRANSPORT,17 BD DE FONTAINEBLEAU,91100,Corbeil-Essonnes,22-011324-1,2022-02-15T01:00:00+01:00,Transport de denrées alimentaires,A améliorer,,,48.599708,2.471758
7860,BAY,11 rue Gustave Eiffel,91420,Morangis,22-003149-1,2022-01-19T01:00:00+01:00,"VH, VSM, préparation viandes boucherie",Satisfaisant,91432037.0,,48.700474,2.33781
7866,BAY,11 rue Gustave Eiffel,91420,Morangis,22-010950-1,2022-01-19T01:00:00+01:00,"VH, VSM, préparation viandes volailles lagomorphes",Très satisfaisant,91432037.0,,48.700474,2.33781
7927,PRODUCTION CUISINE CENTRALE DES PYRAMIDES,BD DES CHAMPS ELYSEES,91000,Évry-Courcouronnes,22-011757-1,2022-02-14T01:00:00+01:00,Restauration collective,Très satisfaisant,,Restauration collective,48.626017,2.424072
8176,LA COMMERCIALE,268 BD HENRI BARBUSSE,91210,Draveil,22-012296-1,2022-02-18T01:00:00+01:00,Restaurant,A corriger de manière urgente,,Restaurant,48.690598,2.41145
8302,CRECHE DES ECUREUILS,rue Clément Durand,91390,Morsang-sur-Orge,21-074220-1,2021-09-17T02:00:00+02:00,Restauration collective,Très satisfaisant,,Restauration collective,48.663072,2.346987
8335,COLLEGE LES GATINES RENE CASSIN,6 avenue de Lattre de Tassigny,91600,Savigny-sur-Orge,22-009010-1,2022-02-01T01:00:00+01:00,Restauration collective,Très satisfaisant,91589017.0,Restauration collective,48.684954,2.333906
8381,SO.BIO,7 RUE CHARLES PEGUY,91540,Mennecy,22-013332-1,2022-02-23T01:00:00+01:00,Rayon boucherie-charcuterie,Satisfaisant,,Rayon boucherie-charcuterie,48.563194,2.448688
8409,FOYER FAM LE MALONNIER,172 VOIE DU CHEMINET,91420,Morangis,21-108569-1,2022-02-02T01:00:00+01:00,Restauration collective,Très satisfaisant,,Restauration collective,48.708599,2.32619
8564,COLLEGE ALBERT CAMUS,"72, route de grigny",91130,Ris-Orangis,21-077295-1,2021-09-28T02:00:00+02:00,Restauration collective,Satisfaisant,,Restauration collective,48.65199,2.400263
8567,COLLEGE LES DINES CHIENS,5 AVENUE DE CARLET,91380,Chilly-Mazarin,21-047462-1,2021-06-07T02:00:00+02:00,Restauration collective,Très satisfaisant,91161140.0,Restauration collective,48.703886,2.310028
8805,THADOR,27 AVENUE PASTEUR,91200,Athis-Mons,21-043031-1,2021-06-02T02:00:00+02:00,Transformation de produits de la pêche,Très satisfaisant,91027005.0,,48.705562,2.367594
8977,LES COCOTTES DU MONDE,4 RUE LAVOISIER,91540,Mennecy,21-090319-1,2021-10-06T02:00:00+02:00,Restaurant,Très satisfaisant,,Restaurant,48.565572,2.444747
9118,L'ABBAYE,"2, rue HORACE DE CHOISEUL",91170,Viry-Châtillon,21-046940-1,2021-06-09T02:00:00+02:00,Restauration collective,Très satisfaisant,,Restauration collective,48.668081,2.373872
9165,BALKANIKA DELICE,BALKANIKA DELICE,91390,Morsang-sur-Orge,21-045183-1,2021-05-31T02:00:00+02:00,Boucherie-Charcuterie,Très satisfaisant,,Boucherie-Charcuterie,48.656472,2.351646
9168,MULTI ACCUEIL FARANDOLE,1 ALLEE DES ECOLES,91210,Draveil,21-052612-1,2021-06-30T02:00:00+02:00,Restauration collective,Très satisfaisant,,Restauration collective,48.689236,2.4323
9169,BURGER KING,2 AV ARISTIDE BRIAND,91550,Paray-Vieille-Poste,21-031579-1,2021-04-21T02:00:00+02:00,Restaurant,Très satisfaisant,,Restaurant,48.708823,2.371015
9317,EHPAD DU PERRAY,CENTRE HOSPITALIER VAUCLUSE,91360,Épinay-sur-Orge,21-054063-1,2021-06-23T02:00:00+02:00,Restauration collective,Satisfaisant,,Restauration collective,48.678731,2.320469
9326,EHPAD DU PERRAY,CENTRE HOSPITALIER VAUCLUSE,91360,Épinay-sur-Orge,21-054070-1,2021-06-23T02:00:00+02:00,Restauration collective,Satisfaisant,,Restauration collective,48.678731,2.320469
9452,LES P'TITS LOUPS,1 ALLEE DES THUYAS,91830,Le Coudray-Montceaux,21-082912-1,2021-10-13T02:00:00+02:00,Restauration collective,Très satisfaisant,,Restauration collective,48.566814,2.481504
9542,ECOLE PRIMAIRE PUBLIQUE LES MARAIS,"8, rue de la Voie Verte",91160,Ballainvilliers,21-105934-1,2021-12-29T01:00:00+01:00,Restauration collective,Très satisfaisant,,Restauration collective,48.678746,2.293771
9602,RESIDENCE LES 5 SENS,AVENUE DE LA TOUR MAURY,91280,Saint-Pierre-du-Perray,21-027900-1,2021-03-31T02:00:00+02:00,Restauration collective,Très satisfaisant,,Restauration collective,48.620373,2.511284
9735,EHPAD DU PERRAY,CENTRE HOSPITALIER VAUCLUSE,91360,Épinay-sur-Orge,21-049986-1,2021-06-23T02:00:00+02:00,Restauration collective,Satisfaisant,,Restauration collective,48.678731,2.320469
9991,COLLEGE BLAISE PASCAL,4 ALLEE DU BOCAGE,91360,Villemoisson-sur-Orge,20-096233-1,2021-05-11T02:00:00+02:00,Restauration collective,Satisfaisant,,Restauration collective,48.66151,2.328601
10042,VALENTINO,65 RTE NATIONALE 6,91800,Brunoy,21-079112-1,2021-09-15T02:00:00+02:00,Restaurant,Très satisfaisant,,Restaurant,48.679473,2.495058
10137,DYNASTIE,DYNASTIE,91440,Bures-sur-Yvette,21-089736-1,2021-11-04T01:00:00+01:00,Restaurant,Satisfaisant,,Restaurant,48.690963,2.158042
10172,L'ANDREA,6 BOULEVARD DU GENERAL DE GAULLE,91210,Draveil,21-071978-1,2021-08-26T02:00:00+02:00,Restaurant,Satisfaisant,,Restaurant,48.688099,2.391785
10220,GOV GOURMET,21 AVENUE DU PRESIDENT KENNEDY,91300,Massy,21-034648-1,2021-04-07T02:00:00+02:00,"VH, VSM, préparation viandes volailles lagomorphes",Très satisfaisant,91377042.0,,48.730686,2.262149
10372,GOV GOURMET,21 AVENUE DU PRESIDENT KENNEDY,91300,Massy,21-027944-1,2021-04-07T02:00:00+02:00,Transformation de produits carnés,Très satisfaisant,91377042.0,,48.730686,2.262149
10375,GOV GOURMET,21 AVENUE DU PRESIDENT KENNEDY,91300,Massy,21-034637-1,2021-04-07T02:00:00+02:00,"VH, VSM, préparation viandes boucherie",Très satisfaisant,91377042.0,,48.730686,2.262149
10381,GOV GOURMET,21 AVENUE DU PRESIDENT KENNEDY,91300,Massy,21-034625-1,2021-04-07T02:00:00+02:00,Mareyage et préparation de produits de la pêche,Très satisfaisant,91377042.0,,48.730686,2.262149
10422,PRODUCTION CUISINE CENTRALE DU CANAL,22 B rue du Marquis de RAIES,91000,Évry-Courcouronnes,21-024097-1,2021-03-22T01:00:00+01:00,Restauration collective,Très satisfaisant,91182002.0,Restauration collective,48.628463,2.420429
10567,LE CALYPSO,44 AV CARNOT,91300,Massy,21-072420-1,2021-09-10T02:00:00+02:00,Restaurant,Satisfaisant,,Restaurant,48.727998,2.264958
10713,KFC,24 RTE DE MASSY,91380,Chilly-Mazarin,21-072258-1,2021-09-10T02:00:00+02:00,Restaurant,Satisfaisant,,Restaurant,48.712363,2.30327
11007,COMPAGNIE REPUBLICAINE SECURITE 5,1 rue des Migniaux,91300,Massy,21-056460-1,2021-07-12T02:00:00+02:00,Restauration collective,Satisfaisant,,Restauration collective,48.729151,2.250962
11043,ROYAL MASSY II,AV DU MARECHAL LECLERC,91300,Massy,21-072718-1,2021-09-14T02:00:00+02:00,Restaurant,Satisfaisant,,Restaurant,48.72929,2.300591
11046,CDM MASSY,32 RUE DE LA DIVISION LECLERC,91300,Massy,21-072720-1,2021-09-14T02:00:00+02:00,Restaurant,Très satisfaisant,,Restaurant,48.730117,2.274397
11093,CALIXIR TRAITEUR EVENEMETIEL...,"1, RUE GUILLAUME BIGOURDAN",91320,Wissous,21-059093-1,2021-07-08T02:00:00+02:00,Transformation de produits carnés,Très satisfaisant,91689021.0,,48.729244,2.329289
11255,BOUCHERIE FLEURY,103 RUE ROSA PARKS,91700,Fleury-Mérogis,21-059889-1,2021-07-22T02:00:00+02:00,Boucherie-Charcuterie,Satisfaisant,,Boucherie-Charcuterie,48.638259,2.359348
11550,BEREKET CENTER SARL,8 RUE PAUL MAINTENANT,91100,Corbeil-Essonnes,22-005905-1,2022-01-26T01:00:00+01:00,Chaîne d'abattage de volaille/lagomorphe/petit gibier,Très satisfaisant,91174030.0,,48.613871,2.455623
11721,BOUCHERIE STEPHANE,2 RUE GUINCHARD,91290,Arpajon,21-076139-1,2021-09-23T02:00:00+02:00,Traiteur|Boucherie-Charcuterie,Satisfaisant,,Traiteur|Boucherie-Charcuterie,48.589291,2.248793
11757,MAISON DE LA PETITE ENFANCE,41 RUE MONTESSUY,91260,Juvisy-sur-Orge,21-046414-1,2021-06-08T02:00:00+02:00,Restauration collective,Très satisfaisant,,Restauration collective,48.686743,2.383925
11781,PIZZERIA VERVILLE (SARL),Centre Commercial Verville,91540,Mennecy,21-103143-1,2021-11-23T01:00:00+01:00,Restaurant,Très satisfaisant,,Restaurant,48.569797,2.436353
12091,SODEXO SANTE MEDICO SOCIAL,5-7 RUE LAVOISIER,91540,Mennecy,21-060293-1,2021-07-15T02:00:00+02:00,Restauration collective,Très satisfaisant,91386109.0,Restauration collective,48.565265,2.444682
12118,DOMAFRAIS,1 AVENUE DES FROIDES BOUILLIES,91420,Morangis,21-073773-1,2021-09-16T02:00:00+02:00,Transport de denrées alimentaires,Très satisfaisant,,,48.706816,2.348698
12226,EARL DES LAVANDIERES,27 RUE DES MOULINS,91660,Le Mérévillois,21-087238-1,2021-10-22T02:00:00+02:00,Mareyage et préparation de produits de la pêche,Très satisfaisant,91390003.0,,48.308515,2.089134
12320,BOUCHERIE BERNARD,RTE VILLOISON,91100,Villabé,21-108467-1,2022-02-01T01:00:00+01:00,Boucherie-Charcuterie,Satisfaisant,,Boucherie-Charcuterie,48.582343,2.441982
12322,DEL ARTE,52 AV DE LA COMMUNE DE PARIS,91220,Brétigny-sur-Orge,21-077846-1,2021-09-29T02:00:00+02:00,Restaurant,Très satisfaisant,,Restaurant,48.587655,2.300004
12384,GAEC FERME DES SUEURS,FERME DES SUEURS,91530,Le Val-Saint-Germain,21-087416-1,2021-10-26T02:00:00+02:00,Chaîne d'abattage de volaille/lagomorphe/petit gibier,Très satisfaisant,,,48.563989,2.06296
12405,BUFFALO GRILL,36  RTE DE MASSY,91380,Chilly-Mazarin,21-031544-1,2021-04-20T02:00:00+02:00,Restaurant,Très satisfaisant,,Restaurant,48.715728,2.297559
12529,SARL CHEZ MAGDA,266 BOULEVARD HENRI BARBUSSE,91210,Draveil,21-074196-1,2021-09-01T02:00:00+02:00,Restaurant,Satisfaisant,,Restaurant,48.69051,2.411398
12612,STG WISSOUS,1549 RUE DU BERGER,91320,Wissous,21-062995-1,2021-08-09T02:00:00+02:00,Entreposage non spécialisé de denrées alimentaires,Très satisfaisant,91689004.0,,48.721702,2.342449
12662,BOUCHERIE DE PARIS,38 RUE DE PARIS,91100,Corbeil-Essonnes,20-096089-1,2021-04-22T02:00:00+02:00,Boucherie-Charcuterie,Satisfaisant,,Boucherie-Charcuterie,48.60265,2.469067
12680,AU BOIS JOLI S A,1 RUE DU REGARD,91350,Grigny,21-067139-1,2021-07-19T02:00:00+02:00,Restauration collective,Très satisfaisant,,Restauration collective,48.658271,2.388773
12702,ECOLE MATERNELLE PUBLIQUE LOUIS PASTEUR,5 AV DU MARECHAL LECLERC,91270,Vigneux-sur-Seine,21-096380-1,2021-10-28T02:00:00+02:00,Restauration collective,Très satisfaisant,,Restauration collective,48.708054,2.42578
12708,HOPITAL PSYCHIATRIQUE L'EAU VIVE,6 AV DU GENERAL DE GAULLE,91450,Soisy-sur-Seine,20-096522-1,2021-06-21T02:00:00+02:00,Restauration collective,Satisfaisant,,Restauration collective,48.641948,2.455644
12849,SURMA,3 RUE DE MAINVILLE,91210,Draveil,21-074187-1,2021-08-31T02:00:00+02:00,Restaurant,Satisfaisant,,Restaurant,48.686576,2.415139
12941,AMICALE FRANCO TURC D ETAMPES,13 RUE DU PONT SAINT-JEAN,91150,Étampes,21-106190-1,2021-12-23T01:00:00+01:00,Restauration collective,Satisfaisant,,Restauration collective,48.432978,2.150101
12952,ECOLE MATERNELLE VICTOR BALOCHE GROUP,RUE CHARLES LEGROS,91320,Wissous,22-004171-1,2022-01-20T01:00:00+01:00,Restauration collective,Très satisfaisant,,Restauration collective,48.732371,2.326258
12989,NATURALIA,49 AV DE LA COMMUNE DE PARIS,91220,Brétigny-sur-Orge,22-001570-1,2022-01-12T01:00:00+01:00,Libre service|Rayon boucherie-charcuterie,Très satisfaisant,,Libre service|Rayon boucherie-charcuterie,48.586531,2.301694
13092,COLLEGE JEAN ROSTAND,rue de l'Hermite,91490,Milly-la-Forêt,21-072515-1,2021-09-14T02:00:00+02:00,Restauration collective,Satisfaisant,,Restauration collective,48.401229,2.476218
13605,BOUCHERIE MONTCONSEIL,5 RUE LOUIS DREVET,91100,Corbeil-Essonnes,20-096372-1,2021-06-01T02:00:00+02:00,Boucherie-Charcuterie,Satisfaisant,,Boucherie-Charcuterie,48.600569,2.477254
13611,ETRECHY DISTRIBUTION,LES CORPS SAINTS,91580,Étréchy,21-094637-1,2021-11-23T01:00:00+01:00,Rayon poissonnerie,Très satisfaisant,,Rayon poissonnerie,48.488487,2.188099
13614,ETRECHY DISTRIBUTION,LES CORPS SAINTS,91580,Étréchy,21-094643-1,2021-11-23T01:00:00+01:00,Rayon boucherie-charcuterie,Satisfaisant,,Rayon boucherie-charcuterie,48.488487,2.188099
13666,DA XING,CC La Maison Neuve,91220,Brétigny-sur-Orge,21-076681-1,2021-09-09T02:00:00+02:00,Restaurant,Très satisfaisant,,Restaurant,48.587622,2.303925
13728,PIZZA SERVIZIO,296 BOULEVARD HENRI BARBUSSE,91210,Draveil,21-063883-1,2021-08-10T02:00:00+02:00,Restaurant,Satisfaisant,,Restaurant,48.694638,2.41437
14132,BERCEAU DES ROIS BONDOUFLE,7 RUE DU CLOS DE LA FERME,91070,Bondoufle,21-085739-1,2021-10-20T02:00:00+02:00,Restauration collective,Très satisfaisant,,Restauration collective,48.613793,2.375905
14381,LE FAVORI,116 AV ARISTIDE BRIAND,91420,Morangis,21-061969-1,2021-08-03T02:00:00+02:00,Restaurant,Très satisfaisant,,Restaurant,48.701228,2.32346
14393,VISHAL FRIED CHICKEN,33 AV DE LA CONCORDE,91270,Vigneux-sur-Seine,22-002383-1,2022-01-14T01:00:00+01:00,Restaurant,Très satisfaisant,,Restaurant,48.705153,2.421943
14429,LE PHENIX DE MASSY (SARL),"49, avenue Carnot",91300,Massy,21-072351-1,2021-09-10T02:00:00+02:00,Restaurant,Satisfaisant,,Restaurant,48.723752,2.259577
14515,COMITE FAMILIAL SCOLAIRE DE CORBEIL,8 QUAI DE L ESSONNE,91100,Corbeil-Essonnes,22-001890-1,2022-01-05T01:00:00+01:00,Restauration collective,Très satisfaisant,91174201.0,Restauration collective,48.608896,2.48292
14659,AUX VIANDES ARPAJONNAISES,22 PLACE DU MARCHE,91290,Arpajon,21-061587-1,2021-08-03T02:00:00+02:00,Métier de bouche,Satisfaisant,,,48.588866,2.249767
14714,LICINA AVOULY,RUE  DE THIONVILLE,91740,Pussay,21-076014-1,2021-09-23T02:00:00+02:00,Chaîne d'abattage de volaille/lagomorphe/petit gibier,Satisfaisant,91511001.0,,48.352419,1.995423
14770,ETAMPES MARKET,26 RUE ARISTIDE BRIAND,91150,Étampes,21-099024-1,2021-12-02T01:00:00+01:00,Fromagerie|Glacier|Poissonnerie|Traiteur|Boucherie-Charcuterie,Satisfaisant,,Fromagerie|Glacier|Poissonnerie|Traiteur|Boucherie-Charcuterie,48.433607,2.160852
14856,ECOLE PRIMAIRE PUBLIQUE LE PORT-SUD,ECOLE PRIMAIRE PUBLIQUE LE PORT-SUD,91650,Breuillet,22-006382-1,2022-01-25T01:00:00+01:00,Restauration collective,Très satisfaisant,,Restauration collective,48.572917,2.189796
15045,LA VIE ACTIVE,OFFICE LES FRENES,91360,Épinay-sur-Orge,21-052414-1,2021-07-01T02:00:00+02:00,Restauration collective,Très satisfaisant,,Restauration collective,,
15049,LA VIE ACTIVE,7 RUE DE VILLEMOISSON,91360,Épinay-sur-Orge,21-052395-1,2021-07-01T02:00:00+02:00,Restauration collective,Très satisfaisant,,Restauration collective,48.665635,2.317195
15292,LICINA AVOULY,RUE  DE THIONVILLE,91740,Pussay,21-076024-1,2021-09-23T02:00:00+02:00,Découpe de viandes de volailles/lagomorphe,Très satisfaisant,91511001.0,,48.352419,1.995423
15295,COTE OUEST (SARL),C.C. La Verville,91540,Mennecy,21-106797-1,2021-12-09T01:00:00+01:00,Restaurant,Satisfaisant,,Restaurant,48.554435,2.422091
15463,CAP SUD,CAP SUD,91420,Morangis,21-063339-1,2021-08-10T02:00:00+02:00,Restaurant,Satisfaisant,,Restaurant,48.699595,2.333773
15468,ABATTOIRS DU SUD,1 RUE DES ROCHETTES,91150,Morigny-Champigny,21-091048-1,2021-11-09T01:00:00+01:00,Boucherie-Charcuterie,Satisfaisant,,Boucherie-Charcuterie,48.451788,2.170968
15494,COMPAGNIE GENERALE DE RESTAURATION,Rue du chemin blanc,91160,Champlan,21-090558-1,2021-10-13T02:00:00+02:00,Restauration collective,Très satisfaisant,91345006.0,Restauration collective,48.705284,2.292832
15517,BOUCHERIE LOMETTO,3 PL DE L ORME,91740,Pussay,21-063433-1,2021-08-10T02:00:00+02:00,Boucherie-Charcuterie,Très satisfaisant,,Boucherie-Charcuterie,48.348813,1.994401
15525,VIRYDIS,ROUTE DE FLEURY,91177,Viry-Châtillon,22-003257-1,2022-01-19T01:00:00+01:00,Rayon boucherie-charcuterie,Satisfaisant,,Rayon boucherie-charcuterie,48.663317,2.376458
15600,SHH - IT TRATTORIA,3 RUE MICHELE MORGAN,91220,Brétigny-sur-Orge,21-026566-1,2021-03-30T02:00:00+02:00,Restaurant,Très satisfaisant,,Restaurant,48.580548,2.300792
15637,ALFORNO,1 PL LUCIEN BOILLEAU,91420,Morangis,21-063697-1,2021-08-11T02:00:00+02:00,Restaurant,Satisfaisant,,Restaurant,48.706103,2.335159
15780,COLLEGE JEAN ZAY,8 RUE JULES VALLES,91390,Morsang-sur-Orge,21-096056-1,2021-11-26T01:00:00+01:00,Restauration collective,Très satisfaisant,91434002.0,Restauration collective,48.650551,2.347849
15786,COLLEGE LES SABLONS,53 RUE DUPARCHY,91170,Viry-Châtillon,21-102391-1,2021-12-14T01:00:00+01:00,Restauration collective,Très satisfaisant,91687020.0,Restauration collective,48.668733,2.363517
15820,COLLEGE LE SAUSSAY,23 RUE DE VERDUN,91610,Ballancourt-sur-Essonne,21-048392-1,2021-06-10T02:00:00+02:00,Restauration collective,Très satisfaisant,,Restauration collective,48.529016,2.371874
15821,DOMAINE DE LA CHALOUETTE,10 rue des tilleuls,91150,Morigny-Champigny,21-032373-1,2021-04-26T02:00:00+02:00,Restauration collective,Satisfaisant,,Restauration collective,48.440478,2.175351
15965,ESAT LES ATELIERS MORSAINTOIS,6 RUE JULES VALLES,91390,Morsang-sur-Orge,21-102971-1,2021-12-09T01:00:00+01:00,Restauration collective,Très satisfaisant,91434011.0,Restauration collective,48.651266,2.348073
16142,B K L,53 AVENUE DU COMMANDANT BARRE,91170,Viry-Châtillon,21-078946-1,2021-10-01T02:00:00+02:00,Commerce alimentaire,Satisfaisant,,,48.660782,2.366248
16222,JARDIN ROYAL,4 RUE MICHELE MORGAN,91220,Brétigny-sur-Orge,21-064932-1,2021-08-16T02:00:00+02:00,Restaurant,Satisfaisant,,Restaurant,48.580554,2.300671
16225,ECOLE PRIMAIRE APPLICATION LES DONJONS,RUE DES ECOLES,91450,Soisy-sur-Seine,21-109066-1,2022-02-22T01:00:00+01:00,Restauration collective,Satisfaisant,91600002.0,Restauration collective,48.648476,2.445674
16468,CRP BEAUVOIR,"33, avenue de mousseau",91000,Évry-Courcouronnes,21-052840-1,2021-06-23T02:00:00+02:00,Restauration collective,Très satisfaisant,,Restauration collective,48.627648,2.454177
16541,PLANETE ISTANBUL,60 AV HENRI BARBUSSE,91270,Vigneux-sur-Seine,22-014215-1,2022-02-25T01:00:00+01:00,Restaurant,Très satisfaisant,,Restaurant,48.700287,2.420518
16570,MAIRIE COMMUNE DE NOZAY,3 RUE DES VERTS-PRES,91620,Nozay,20-096239-1,2021-05-10T02:00:00+02:00,Restauration collective,Satisfaisant,91458004.0,Restauration collective,48.661119,2.238289
16772,DRAVEIL DREAM SUSHI,65 B RUE DES CREUSES,91210,Draveil,21-086979-1,2021-10-22T02:00:00+02:00,Restaurant,Satisfaisant,,Restaurant,48.684652,2.427978
16847,COMITE DES FETES D'ITTEVILLE,MAIRIE,91760,Itteville,21-068071-1,2021-08-27T02:00:00+02:00,Restaurant,Satisfaisant,,Restaurant,48.517757,2.344571
16863,COMITE CULTUREL CERNOIS,8 RUE DEGOMMIER,91590,Cerny,21-068078-1,2021-08-27T02:00:00+02:00,Restaurant,Satisfaisant,,Restaurant,48.476228,2.329444
16963,ECOLE PRIMAIRE SAINT PIERRE,70 RUE DE MONTGERON,91800,Brunoy,21-039611-1,2021-05-10T02:00:00+02:00,Restauration collective,Très satisfaisant,91114103.0,Restauration collective,48.694537,2.489954
16995,SUBWAY,SUBWAY,91540,Mennecy,21-090301-1,2021-10-14T02:00:00+02:00,Restaurant,Très satisfaisant,,Restaurant,48.560075,2.435966
17032,SAKURA,13 PL MARX DORMOY,91270,Vigneux-sur-Seine,21-100515-1,2021-12-09T01:00:00+01:00,Restaurant,Très satisfaisant,,Restaurant,48.708876,2.432734
17117,UNITE CENTRALE DE PRODUCTION DEPARTEMENTALE,RUE HENRI DOUARD,91220,Brétigny-sur-Orge,21-084914-1,2021-10-19T02:00:00+02:00,Restauration collective,Satisfaisant,91103111.0,Restauration collective,48.610738,2.313037
17346,COMPASS GROUP FRANCE 7950,RUE DE LA NESILLE,91200,Athis-Mons,21-106457-1,2021-12-15T01:00:00+01:00,Restauration collective,Très satisfaisant,91027266.0,Restauration collective,48.716295,2.389376
17386,MACDONALD'S  GRIGNY,2 RUE DES HALLES,91350,Grigny,21-051030-1,2021-06-22T02:00:00+02:00,Restaurant,Très satisfaisant,,Restaurant,48.66991,2.393892
17689,BAR RESTAURANT L'AMICALE,AERODROME PLATEAU ARDENAY,91590,Cerny,21-093642-1,2021-11-19T01:00:00+01:00,Restaurant,Satisfaisant,,Restaurant,48.496094,2.343623
17964,EX FOOD 91,42 AVENUE PIERRE BROSSOLETTE,91380,Chilly-Mazarin,21-068731-1,2021-08-31T02:00:00+02:00,Restaurant,A améliorer,,Restaurant,48.703317,2.321504
18293,LA PATISSERIE DE REBECCA,1 chemin de Roinville,91410,Dourdan,21-070098-1,2021-09-03T02:00:00+02:00,Restaurant,Satisfaisant,,Restaurant,48.529668,2.02995
18314,THE CREPERIE,99 AV GENERAL LECLERC,91120,Palaiseau,21-070128-1,2021-09-03T02:00:00+02:00,Restaurant,Très satisfaisant,,Restaurant,48.703864,2.230258
18328,UNION MUTUALISTE D'INITIATIVE SANTE,"8, grande rue",91700,Fleury-Mérogis,21-059087-1,2021-07-12T02:00:00+02:00,Restauration collective,Satisfaisant,,Restauration collective,48.636074,2.362891
18413,CHEDEVILLE-CHARCUTERIE DE PARIS,9 RUE JEAN MERMOZ,91133,Évry-Courcouronnes,21-039560-1,2021-05-19T02:00:00+02:00,Découpe de viande de boucherie,Satisfaisant,91182012.0,,48.627261,2.410287
18422,CHEDEVILLE-CHARCUTERIE DE PARIS,9 RUE JEAN MERMOZ,91133,Évry-Courcouronnes,21-042193-1,2021-05-19T02:00:00+02:00,Transformation de produits carnés,Très satisfaisant,91182012.0,,48.627261,2.410287
18636,BELLA STELLA SK,4 RUE CERFEUILLE,91340,Ollainville,21-070123-1,2021-09-03T02:00:00+02:00,Restaurant,Satisfaisant,,Restaurant,48.591537,2.235273
18680,HERACLES,9 RUE D AUVERGNE,91120,Palaiseau,21-079169-1,2021-09-30T02:00:00+02:00,Traiteur,Très satisfaisant,,Traiteur,48.714687,2.247792
18741,CHEDEVILLE-CHARCUTERIE DE PARIS,9 RUE JEAN MERMOZ,91133,Évry-Courcouronnes,21-042201-1,2021-05-19T02:00:00+02:00,"VH, VSM, préparation viandes boucherie",Très satisfaisant,91182012.0,,48.627261,2.410287
19012,BOUCHERIE ET SERVICES MEZGUITEM,14 RUE GEORGES BRASSENS,91080,Évry-Courcouronnes,21-070633-1,2021-09-07T02:00:00+02:00,Boucherie-Charcuterie,Très satisfaisant,,Boucherie-Charcuterie,48.618335,2.393758
19030,ANGE 91,16 RUE DU PONT LAFLEUR,91670,Angerville,21-091290-1,2021-11-10T01:00:00+01:00,Restaurant,Très satisfaisant,,Restaurant,48.318609,2.00065
19136,SUSHI STORY,9 RUE DES CERISIERS,91090,Lisses,21-089455-1,2021-11-03T01:00:00+01:00,Restaurant,Satisfaisant,,Restaurant,48.596533,2.43549
19290,GUSTO & PASSIONE,34 RTE DE LONGJUMEAU,91380,Chilly-Mazarin,21-071468-1,2021-09-08T02:00:00+02:00,Restaurant,Satisfaisant,,Restaurant,48.706192,2.296974
19322,ASSOCIATION INTERMEDES ROBINSON,12 AVENUE MAZARIN,91380,Chilly-Mazarin,21-089789-1,2021-10-22T02:00:00+02:00,Restaurant,Très satisfaisant,,Restaurant,48.703531,2.318814
19365,UNITE CENTRALE DE PRODUCTION DEPARTEMENTALE,avenue foch,91580,Étréchy,21-071764-1,2021-09-10T02:00:00+02:00,Restauration collective,Satisfaisant,91226109.0,Restauration collective,48.489589,2.176435
19513,CLASS'CROUTE,CLASS'CROUTE,91090,Lisses,21-089459-1,2021-11-02T01:00:00+01:00,Restaurant,Satisfaisant,,Restaurant,48.605005,2.447026
19547,QUICKTIME,234 RUE DE PARIS,91120,Palaiseau,21-090290-1,2021-11-05T01:00:00+01:00,Restaurant,Satisfaisant,,Restaurant,48.709125,2.240621
19789,RESIDENCE SOLEIL FH,13 Rue Appert,91300,Massy,21-077932-1,2021-09-28T02:00:00+02:00,Restauration collective,Satisfaisant,,Restauration collective,48.73184,2.279802
19793,O'TACOS,52 AVENUE MAZARIN,91380,Chilly-Mazarin,21-068004-1,2021-08-27T02:00:00+02:00,Restaurant,Très satisfaisant,,Restaurant,48.70695,2.312258
19861,ALLO PIZZA,5 RUE PASTEUR,91120,Palaiseau,21-096639-1,2021-11-26T01:00:00+01:00,Restaurant,Très satisfaisant,,Restaurant,48.715394,2.246751
19922,EHPAD PUBLIC DE DRAVEIL,0 RUE PIERRE BROSSOLETTE,91210,Draveil,21-027911-1,2021-04-06T02:00:00+02:00,Restauration collective,Satisfaisant,,Restauration collective,48.685729,2.418816
19982,EHPAD DU PERRAY,CENTRE HOSPITALIER VAUCLUSE,91360,Épinay-sur-Orge,21-091214-1,2021-11-09T01:00:00+01:00,Restauration collective,Satisfaisant,,Restauration collective,48.678731,2.320469
20054,LE MERELIS,2 AVENUE DE LA REPUBLIQUE,91660,Le Mérévillois,21-091300-1,2021-11-10T01:00:00+01:00,Restaurant,Très satisfaisant,,Restaurant,48.318385,2.087567
20081,AU BON POULET,RESIDENCE DU PARC,91700,Villiers-sur-Orge,21-027791-1,2021-04-07T02:00:00+02:00,Transport de denrées alimentaires,Très satisfaisant,,,48.656159,2.307406
20103,SYNCHROTRON SOLEIL,L'ORME DES MERISIERS,91190,Saint-Aubin,22-011636-1,2022-02-09T01:00:00+01:00,Restauration collective,Très satisfaisant,,Restauration collective,48.71027,2.148496
20108,LES MOISSONS DE L OCEAN,119 RUE DE LA DIVISION LECLERC,91160,Saulx-les-Chartreux,21-027842-1,2021-04-07T02:00:00+02:00,Transport de denrées alimentaires,Très satisfaisant,,,48.68791,2.258967
20131,SAVIGNY VIANDES,26 BD ARISTIDE BRIAND,91600,Savigny-sur-Orge,21-107089-1,2022-01-07T01:00:00+01:00,Boucherie-Charcuterie,Satisfaisant,,Boucherie-Charcuterie,48.683562,2.345036
20142,BOUCHERIE NATIONALE,29 RUE DE LA DIVISION LECLERC,91300,Massy,21-101292-1,2021-12-10T01:00:00+01:00,Boucherie-Charcuterie,Très satisfaisant,,Boucherie-Charcuterie,48.730228,2.273415
20398,LIBRE ECOLE RUDOLF STEINER,62 RUE DE PARIS,91370,Verrières-le-Buisson,21-097385-1,2021-11-29T01:00:00+01:00,Restauration collective,Satisfaisant,,Restauration collective,48.739217,2.244255
20485,LYCEE POLYVALENT LEONARD DE VINCI,place léonard de Vinci,91240,Saint-Michel-sur-Orge,21-103439-1,2021-12-03T01:00:00+01:00,Restauration collective,Très satisfaisant,,Restauration collective,48.626306,2.326122
20581,FRANCE HORIZON - EHPAD LES TISSERINS,203 B RUE PIERRE ET MARIE CURIE,91000,Évry-Courcouronnes,21-050570-1,2021-06-17T02:00:00+02:00,Restauration collective,Très satisfaisant,,Restauration collective,48.633546,2.432581
20651,ECOLE MATERNELLE PUBLIQUE BELLEVILLE,4- 6  AVENUE  DES CHENES,91190,Gif-sur-Yvette,21-024667-1,2021-03-23T01:00:00+01:00,Restauration collective,Très satisfaisant,,Restauration collective,48.694566,2.111048
20776,OKIWU,LA BUTTE DE MONTVRAIN,91540,Mennecy,21-109478-1,2022-03-09T01:00:00+01:00,Restaurant,Très satisfaisant,,Restaurant,48.564886,2.441256
20812,COLLEGE MICHEL RICHARD DELALANDE,"4, rue g, ANTHONIOZ DE GAULLE",91200,Athis-Mons,21-036367-1,2021-05-06T02:00:00+02:00,Restauration collective,Très satisfaisant,,Restauration collective,48.712062,2.394841
20836,LA VERANDA,AVENUE DE L EUROPE,91300,Massy,21-089195-1,2021-10-29T02:00:00+02:00,Restaurant,Très satisfaisant,,Restaurant,48.728285,2.256106
21048,CMP VARENNE JARCY,29 RUE DE L A LIBERATION,91480,Varennes-Jarcy,20-096192-1,2021-04-20T02:00:00+02:00,Restauration collective,Très satisfaisant,,Restauration collective,48.677257,2.55813
21092,COMITE DEPARTEMENTAL SAUVEGARDE DE L ENFANT A L ADULTE DE L ESSONNE,Chateau de Brunehaut,91150,Morigny-Champigny,21-032376-1,2021-04-26T02:00:00+02:00,Restauration collective,Satisfaisant,,Restauration collective,48.457201,2.177107
21153,CROQUE O SEL,3 PL DE L'EGLISE,91690,Saclas,21-092751-1,2021-11-17T01:00:00+01:00,Restaurant,Très satisfaisant,,Restaurant,48.361269,2.125468
21298,LE LOU-BAR,1 PL SAINT-PERE MEREVILLE,91660,Le Mérévillois,21-088577-1,2021-10-29T02:00:00+02:00,Restaurant,Satisfaisant,,Restaurant,48.315288,2.087081
21321,ECOLE MATERNELLE JEAN JACQUES ROUSSEAU,IMPASSE JEAN JACQUES ROUSSEAU,91460,Marcoussis,21-033598-1,2021-04-26T02:00:00+02:00,Restauration collective,Très satisfaisant,91363152.0,Restauration collective,48.641749,2.230859
21337,BARBERY SYLVAIN,8 RUE DES MONTCEAUX,91410,Corbreuse,21-030735-1,2021-04-19T02:00:00+02:00,Centre d'emballage des oeufs,Très satisfaisant,91175001.0,,48.50089,1.958583
21341,MARCHE DE L'OPERA,31 PL DE FRANCE,91300,Massy,21-075160-1,2021-09-21T02:00:00+02:00,Boucherie-Charcuterie,Satisfaisant,,Boucherie-Charcuterie,48.732322,2.287786
21344,LES TERRASSES DE L'OPERA,LES TERRASSES DE L'OPERA,91300,Massy,21-075148-1,2021-09-21T02:00:00+02:00,Restaurant,Très satisfaisant,,Restaurant,48.733128,2.289423
21352,ARIB VIANDE 2,2 RUE HENRI DUNANT,91210,Draveil,21-101485-1,2021-12-13T01:00:00+01:00,Boucherie-Charcuterie,Satisfaisant,,Boucherie-Charcuterie,48.686202,2.412567
21529,CUISINE CENTRALE,62 RUE DES MARRONNIERS,91550,Paray-Vieille-Poste,22-008433-1,2022-01-31T01:00:00+01:00,Restauration collective,Très satisfaisant,,Restauration collective,48.714473,2.363619
21535,VARACHAUX,12 RTE DE PARAY,91320,Wissous,21-055130-1,2021-06-17T02:00:00+02:00,Préparation de produits composés,Très satisfaisant,,,48.728468,2.33126
21538,VARACHAUX,12 RTE DE PARAY,91320,Wissous,21-051018-1,2021-06-17T02:00:00+02:00,Transformation de produits carnés,Très satisfaisant,91689005.0,,48.728468,2.33126
21645,WOKLINE,14 ALL JOSEPHINE BAKER,91300,Massy,21-075141-1,2021-09-21T02:00:00+02:00,Restaurant,Très satisfaisant,,Restaurant,48.733049,2.288955
21665,EHPAD JEAN SARRAN,15 RUE DE L ERMITAGE,91410,Dourdan,21-076545-1,2021-09-24T02:00:00+02:00,Restauration collective,Satisfaisant,,Restauration collective,48.526286,2.024672
21843,BOUCHERIE DES EPINETTES,"9 , place de la COMMUNE",91000,Évry-Courcouronnes,21-033952-1,2021-04-29T02:00:00+02:00,Boucherie-Charcuterie,Satisfaisant,,Boucherie-Charcuterie,48.621723,2.441047
21846,SUSHI MAREE,11 BOULEVARD DE L EUROPE,91320,Wissous,21-106775-1,2021-12-22T01:00:00+01:00,Mareyage et préparation de produits de la pêche,Très satisfaisant,91689001.0,,48.730956,2.33419
21931,HIODEE,,91090,Lisses,21-093815-1,2021-10-19T02:00:00+02:00,Mareyage et préparation de produits de la pêche,Très satisfaisant,91340001.0,,48.598234,2.432759
21991,RESIDENCE LES JARDINS DU LAC,2 CHEMIN DES PATURES,91220,Brétigny-sur-Orge,21-029376-1,2021-04-08T02:00:00+02:00,Restauration collective,Très satisfaisant,,Restauration collective,48.619056,2.295871
22129,MC DONALDS,BD CHARLES DE GAULLE,91540,Mennecy,21-098808-1,2021-11-10T01:00:00+01:00,Restaurant,Très satisfaisant,,Restaurant,48.56469,2.436627
22172,INTERMARCHE,46 BOULEVARD DU MARECHAL FOCH,91370,Verrières-le-Buisson,21-037135-1,2021-05-10T02:00:00+02:00,Rayon boucherie-charcuterie,Satisfaisant,,Rayon boucherie-charcuterie,48.744873,2.267908
22190,VARACHAUX,23 RTE DE PARAY,91320,Wissous,21-051008-1,2021-06-17T02:00:00+02:00,"VH, VSM, préparation viandes boucherie",Très satisfaisant,91689002.0,,48.728305,2.332293
22256,MELIS,129 BD DU GENERAL DE GAULLE,91210,Draveil,21-076692-1,2021-09-01T02:00:00+02:00,Restaurant,Très satisfaisant,,Restaurant,48.686182,2.408126
22485,DOMINO'S PIZZA,54 B RUE PIERRE MARIN,91270,Vigneux-sur-Seine,21-030694-1,2021-04-13T02:00:00+02:00,Restaurant,Très satisfaisant,,Restaurant,48.699408,2.416332
22500,LES DELICES DE MASSY,LES DELICES DE MASSY,91300,Massy,21-082694-1,2021-10-12T02:00:00+02:00,Restaurant,Très satisfaisant,,Restaurant,48.729239,2.255003
22656,L'ATELIER CORSE,21 RUE du Général Leclerc,91540,Mennecy,21-076677-1,2021-09-14T02:00:00+02:00,Restaurant,Très satisfaisant,,Restaurant,48.56989,2.433909
22808,MAIRIE COMMUNE DE BIEVRES,3 ALLEE DU PETIT VILLAGE,91570,Bièvres,22-008257-1,2022-01-12T01:00:00+01:00,Restauration collective,Très satisfaisant,91064004.0,Restauration collective,48.75511,2.218636
22831,SOCIETE M.A.T,"315, AVENUE GABRIEL PERI",91700,Sainte-Geneviève-des-Bois,21-056566-1,2021-07-13T02:00:00+02:00,Boucherie-Charcuterie,Satisfaisant,,Boucherie-Charcuterie,48.643473,2.340468
22832,RESIDENCE SOLEIL FH,13 Rue Appert,91300,Massy,21-081336-1,2021-09-28T02:00:00+02:00,Restauration collective,Satisfaisant,,Restauration collective,48.73184,2.279802
22908,CARREFOUR SUPPLY CHAIN,CHEMIN DES 50 ARPENTS,91180,Saint-Germain-lès-Arpajon,21-069073-1,2021-09-01T02:00:00+02:00,Entreposage de distribution de denrées alimentaires,Très satisfaisant,91552011.0,,48.592497,2.280022
22923,COLLEGE JEAN MONNET,"365, rue de la Fontaine de Ville",91640,Briis-sous-Forges,21-049631-1,2021-06-17T02:00:00+02:00,Restauration collective,Très satisfaisant,,Restauration collective,48.620895,2.125672
23085,LES FRERES CASTILHO,9 RUE DE LA DIVISION LECLERC,91300,Massy,21-077507-1,2021-09-28T02:00:00+02:00,Restaurant,Très satisfaisant,,Restaurant,48.729752,2.27512
23161,BOUCHERIE D'ANTAN,181 BD ARISTIDE BRIAND,91600,Savigny-sur-Orge,21-054018-1,2021-06-29T02:00:00+02:00,Boucherie-Charcuterie,Satisfaisant,,Boucherie-Charcuterie,48.687679,2.356336
23213,EHPAD PUBLIC DE DRAVEIL,0 RUE PIERRE BROSSOLETTE,91210,Draveil,21-027588-1,2021-04-06T02:00:00+02:00,Restauration collective,Satisfaisant,,Restauration collective,48.685729,2.418816
23327,MEVLANA,1 R VOLTAIRE,91660,Le Mérévillois,21-078959-1,2021-10-01T02:00:00+02:00,Restaurant,Satisfaisant,,Restaurant,48.319139,2.087769
23400,ESAT LES ATELIERS DU VIEUX CHATRES ANTEN,ZAC de Maison Neuve,91220,Brétigny-sur-Orge,20-096493-1,2021-06-16T02:00:00+02:00,Restauration collective,Très satisfaisant,91103009.0,Restauration collective,48.587622,2.303925
23581,LES DELICES ANATOLIE,79 RUE DE PARIS,91120,Palaiseau,22-003051-1,2022-01-20T01:00:00+01:00,Restaurant,Très satisfaisant,,Restaurant,48.715286,2.246206
23636,MAIRIE COMMUNE DE FLEURY MEROGIS,MAIRIE,91700,Fleury-Mérogis,22-015432-1,2022-03-01T01:00:00+01:00,Restauration collective,Très satisfaisant,,Restauration collective,48.635889,2.366761
23729,ESPACE VOLAILLES,RUE CLEMENT ADER,91700,Fleury-Mérogis,21-092780-1,2021-11-16T01:00:00+01:00,Chaîne d'abattage de volaille/lagomorphe/petit gibier,Très satisfaisant,91235029.0,,48.621931,2.360525
23738,ESPACE VOLAILLES,RUE CLEMENT ADER,91700,Fleury-Mérogis,21-048295-1,2021-06-18T02:00:00+02:00,Boucherie-Charcuterie,Très satisfaisant,,Boucherie-Charcuterie,48.621931,2.360525
23761,ECOLE PRIMAIRE LEOPOLD GARDEY,10 AV EDOUARD HERRIOT,91440,Bures-sur-Yvette,21-043514-1,2021-05-25T02:00:00+02:00,Restauration collective,Satisfaisant,,Restauration collective,48.692461,2.158521
23788,FERME DES FOURNEAUX,RUE DES RONDINS,91810,Vert-le-Grand,21-083150-1,2021-10-12T02:00:00+02:00,Centre d'emballage des oeufs,Très satisfaisant,91648001.0,,48.573094,2.35338
23841,O BON POULET,23 ROUTE NATIONALE 6,91800,Brunoy,21-079104-1,2021-09-15T02:00:00+02:00,Restaurant,Très satisfaisant,,Restaurant,48.681276,2.492852
23912,CHEN JORYS,14 AV DU 8 MAI 1945,91120,Palaiseau,21-080107-1,2021-10-05T02:00:00+02:00,Restaurant,Satisfaisant,,Restaurant,48.712243,2.245438
24039,LES PARENTELES DE LA VILLE DU BOIS,"18, Allée Victor HUGO",91620,La Ville-du-Bois,21-037947-1,2021-05-12T02:00:00+02:00,Restauration collective,Très satisfaisant,,Restauration collective,48.658298,2.265879
24073,COLLEGE DE L'ERMITAGE,chemin de l'ermitage,91450,Soisy-sur-Seine,22-000905-1,2022-01-10T01:00:00+01:00,Restauration collective,Satisfaisant,,Restauration collective,48.64638,2.461385
24318,BOUCHERIE ALIMENTATION DE LA GARE,5 RUE MOLIERE,91270,Vigneux-sur-Seine,21-054418-1,2021-07-06T02:00:00+02:00,Boucherie-Charcuterie,Satisfaisant,,Boucherie-Charcuterie,48.707753,2.414692
24336,TOPKAPI,134 RUE DE PARIS,91120,Palaiseau,21-080105-1,2021-10-05T02:00:00+02:00,Restaurant,A améliorer,,Restaurant,48.713542,2.24438
24413,SAINT CYRIL,148 RUE DE PARIS,91120,Palaiseau,21-081000-1,2021-10-07T02:00:00+02:00,Restaurant,Très satisfaisant,,Restaurant,48.712762,2.24381
24730,JBN SIXTIES,4 RUE MICHELE MORGAN,91220,Brétigny-sur-Orge,21-080562-1,2021-10-06T02:00:00+02:00,Restaurant,Satisfaisant,,Restaurant,48.580554,2.300671
24804,ECOLE ELEMENTAIRE PUBLIQUE AMBROISE PARE,8 RUE DES ECOLES,91620,La Ville-du-Bois,21-080990-1,2021-10-06T02:00:00+02:00,Restauration collective,Satisfaisant,91665005.0,Restauration collective,48.661643,2.268859
24889,LE PARIS,158 RUE DE PARIS,91120,Palaiseau,21-080993-1,2021-10-07T02:00:00+02:00,Restaurant,Très satisfaisant,,Restaurant,48.712343,2.243408
25092,COLLEGE ALPHONSE DAUDET,"11, rue de la citadelle",91210,Draveil,22-007338-1,2022-01-31T01:00:00+01:00,Restauration collective,Satisfaisant,,Restauration collective,48.684823,2.424734
25112,CENTRE HOSPITALIER SUD FRANCILIEN,116 BOULEVARD JEAN JAURES,91100,Corbeil-Essonnes,21-089217-1,2021-11-03T01:00:00+01:00,Restauration collective,Très satisfaisant,91174379.0,Restauration collective,48.611641,2.461721
25210,LE PALAIS MAROCAIN,13 RUE DE PARIS,91120,Palaiseau,21-107714-1,2022-01-07T01:00:00+01:00,Restaurant,Satisfaisant,,Restaurant,48.717853,2.249025
25516,INTERMARCHE,BD MEDER,91170,Viry-Châtillon,22-003281-1,2022-01-19T01:00:00+01:00,Rayon poissonnerie,Satisfaisant,,Rayon poissonnerie,48.68156,2.382711
25589,LE CLOS D'ETRECHY,4 RUE DE LA ROCHE BENOTTE,91580,Étréchy,21-028591-1,2021-04-09T02:00:00+02:00,Restauration collective,Très satisfaisant,,Restauration collective,48.493789,2.180085
25627,MAIRIE COMMUNE DE PALAISEAU,10 AVENUE DE LA REPUBLIQUE,91120,Palaiseau,22-004782-1,2022-01-17T01:00:00+01:00,Restauration collective,Satisfaisant,,Restauration collective,48.713236,2.242846
25730,TAORMINA,TAORMINA,91120,Palaiseau,21-084070-1,2021-10-14T02:00:00+02:00,Restaurant,Satisfaisant,,Restaurant,48.716454,2.232499
25736,CREP'RIE,CREP'RIE,91800,Brunoy,21-084105-1,2021-09-29T02:00:00+02:00,Restaurant,Très satisfaisant,,Restaurant,48.709416,2.507958
25832,LA FESTIVE D'ATHIS,PLACE HENRI DEUDON,91200,Athis-Mons,21-084389-1,2021-10-18T02:00:00+02:00,Boulangerie-Pâtisserie,Satisfaisant,,Boulangerie-Pâtisserie,48.709256,2.386907
25978,LA BOUCHERIE,1 RTE NATIONALE 7,91350,Grigny,21-051145-1,2021-06-22T02:00:00+02:00,Restaurant,Satisfaisant,,Restaurant,48.66417,2.398997
26061,SOC FRESCA,6 RUE DE LA BUTTE AUX BERGER,91220,Le Plessis-Pâté,21-084080-1,2021-09-28T02:00:00+02:00,Entreposage de distribution de denrées alimentaires,Très satisfaisant,91494003.0,,48.618846,2.354677
26083,CUISINE CENTRALE SODEXO,28 AVENUE CHARLES MOSSLER,91600,Savigny-sur-Orge,21-046853-1,2021-06-14T02:00:00+02:00,Restauration collective,Satisfaisant,91589243.0,Restauration collective,48.699363,2.351
26161,DILHAN,127 AV DE LA FORET,91800,Brunoy,21-084098-1,2021-09-29T02:00:00+02:00,Restaurant,Satisfaisant,,Restaurant,48.686268,2.497287
26250,UNITE CENTRALE DE PRODUCTION DEPARTEMENTALE,54 BD BERCHERE,91150,Étampes,21-109134-1,2022-02-24T01:00:00+01:00,Restauration collective,Satisfaisant,91223168.0,Restauration collective,48.431023,2.158649
26280,LA CREPERIE - CREPE AND DWICH,2 RUE SAINT EXUPERY,91350,Grigny,21-074885-1,2021-09-15T02:00:00+02:00,Restaurant,Satisfaisant,,Restaurant,48.652044,2.391122
26454,ECOLE MATERNELLE JEAN FERRAT,18 CHEMIN DE BIRON,91310,Longpont-sur-Orge,21-085002-1,2021-10-19T02:00:00+02:00,Restauration collective,Très satisfaisant,,Restauration collective,48.633575,2.284804
26460,ECOLE MATERNELLE LORMOY,37 RUE DE LORMOY,91310,Longpont-sur-Orge,21-084964-1,2021-10-19T02:00:00+02:00,Restauration collective,Très satisfaisant,,Restauration collective,48.642174,2.291939
26653,LES 3 GAUCHON,5  AVENUE DU GENERAL DE GAULLE,91120,Palaiseau,21-085154-1,2021-10-08T02:00:00+02:00,Restaurant,Très satisfaisant,,Restaurant,48.714643,2.248817
26666,ASSOCIATION DE GESTION DE LA MARPA DE MILLY LA FORET,8 CHE DE SAINT LAURENT,91490,Milly-la-Forêt,22-000432-1,2022-01-05T01:00:00+01:00,Restauration collective,Satisfaisant,,Restauration collective,48.407596,2.461681
26667,BOLLYWOOD TAJ,1 AVENUE DU 1ER MAI,91120,Palaiseau,21-085157-1,2021-10-14T02:00:00+02:00,Restaurant,Satisfaisant,,Restaurant,48.713904,2.258075
26783,ALIMENTAR,AVENUE CONDORCET,91240,Saint-Michel-sur-Orge,21-093819-1,2021-10-21T02:00:00+02:00,Entreposage de distribution de denrées alimentaires,Très satisfaisant,91570009.0,,48.62282,2.31831
26797,ECOLE MATERNELLE PUBLIQUE LES CLOZEAUX,2 rue Hector Berlioz,91620,Nozay,20-096240-1,2021-05-10T02:00:00+02:00,Restauration collective,Satisfaisant,,Restauration collective,48.662721,2.23732
27019,ECOLE MATERNELLE PUBLIQUE LE NOYER,ZAC de la Futaie Saint-Clair,91620,Nozay,21-075687-1,2021-09-21T02:00:00+02:00,Restauration collective,Très satisfaisant,,Restauration collective,48.659175,2.239406
27055,MY HEALTHY FOOD,9 B CHE DE LA GRANGE DU BREUIL,91160,Ballainvilliers,21-101318-1,2021-11-17T01:00:00+01:00,Transformation de produits carnés,Très satisfaisant,91044001.0,,48.674513,2.30353
27152,ECOLE ELEMENTAIRE JOACHIM DU BELLAY,RUE CHRISTINE DE PISAN,91090,Lisses,21-071062-1,2021-09-07T02:00:00+02:00,Restauration collective,Satisfaisant,,Restauration collective,48.604259,2.422914
27174,OKA SUSHI,47 AVENUE DU GENERAL LECLERC,91800,Brunoy,21-086736-1,2021-09-30T02:00:00+02:00,Restaurant,Très satisfaisant,,Restaurant,48.690208,2.495848
27296,YVANNE SAVEUR,13 PL MARX DORMOY,91270,Vigneux-sur-Seine,21-094324-1,2021-11-19T01:00:00+01:00,Restaurant,Très satisfaisant,,Restaurant,48.708876,2.432734
27388,EPS ETAMPES,,91150,Étampes,21-061173-1,2021-08-02T02:00:00+02:00,Restauration collective,Satisfaisant,91223012.0,Restauration collective,48.429826,2.156585
27567,LE GRENIER DU VAL,FERME DES SUEURS,91530,Le Val-Saint-Germain,21-087421-1,2021-10-26T02:00:00+02:00,Producteur fermier,Très satisfaisant,,Producteur fermier,48.563989,2.06296
27610,NEW FREEWOK,3 RUE LAVOISIER,91540,Mennecy,21-108516-1,2022-01-26T01:00:00+01:00,Restaurant,Satisfaisant,,Restaurant,48.565755,2.444665
27692,BOUCHERIE DE LA PLACE DE FRANCE,17 PLACE DE FRANCE,91300,Massy,20-095731-1,2021-04-06T02:00:00+02:00,Métier de bouche,Satisfaisant,,,48.732322,2.287786
27733,COLLEGE LA NACELLE,8 RUE DE LA NACELLE,91100,Corbeil-Essonnes,21-042984-1,2021-05-27T02:00:00+02:00,Restauration collective,Très satisfaisant,91174022.0,Restauration collective,48.595916,2.460996
27941,CHICKEN FAMILY,1 RUE DU CHATEAU,91150,Étampes,22-013070-1,2022-02-22T01:00:00+01:00,Restaurant,Très satisfaisant,,Restaurant,48.436447,2.160542
27962,CRECHE COLLECTIVE DEPARTEMENTAL FRANCE,BOULEVARD DE FRANCE,91000,Évry-Courcouronnes,21-039610-1,2021-05-17T02:00:00+02:00,Restauration collective,Très satisfaisant,,Restauration collective,48.626278,2.439557
28309,SUBITO PIZZA,2 RUE PIERRE PICARD,91300,Massy,21-106571-1,2022-01-04T01:00:00+01:00,Restaurant,Satisfaisant,,Restaurant,48.734085,2.273481
28506,BR,23 RUE DU CHEMIN DE TOURNENFILS,91540,Ormoy,21-090311-1,2021-10-12T02:00:00+02:00,Restaurant,Très satisfaisant,,Restaurant,48.574072,2.448406
28543,COLLEGE LE VILLAGE,10 RUE DU VILLAGE,91035,Évry-Courcouronnes,20-096614-1,2021-06-29T02:00:00+02:00,Restauration collective,Satisfaisant,91228179.0,Restauration collective,48.631767,2.443133
28722,RESIDENCE RETRAITE CINEMA ET SPECTACLE,"47, rue Gaston Grinbaum",91270,Vigneux-sur-Seine,21-049289-1,2021-06-14T02:00:00+02:00,Restauration collective,Très satisfaisant,,Restauration collective,48.691207,2.435177
28735,BOUCHERIE CAP DE L'EAU,80 RUE FERAY,91100,Corbeil-Essonnes,21-069210-1,2021-09-02T02:00:00+02:00,Boucherie-Charcuterie,Satisfaisant,,Boucherie-Charcuterie,48.607277,2.473617
28892,S.C.I LE CHALET D'ETIOLLES,1 AV DE LA FONTAINE AU SOULIER,91450,Étiolles,21-029078-1,2021-03-29T02:00:00+02:00,Restaurant,Satisfaisant,,Restaurant,48.626556,2.473754
30016,PIZZA FAST 30,6 AV DU BOIS CHAPET,91540,Mennecy,21-096396-1,2021-11-09T01:00:00+01:00,Restaurant,Satisfaisant,,Restaurant,48.569904,2.436982
30031,AFIN,76 RUE DE CERCAY,91800,Brunoy,21-096370-1,2021-10-26T02:00:00+02:00,Restaurant,Satisfaisant,,Restaurant,48.707409,2.516408
30313,TUTTI QUANTI,6 AVENUE DE L EUROPE,91210,Draveil,21-031568-1,2021-04-21T02:00:00+02:00,Restaurant,Satisfaisant,,Restaurant,48.682818,2.430972
30558,BOUCHERIE FLORIAN,"109, boulevard Henri Barbusse",91210,Draveil,21-106158-1,2021-12-16T01:00:00+01:00,Boucherie-Charcuterie,Très satisfaisant,,Boucherie-Charcuterie,48.685953,2.408558
30570,MINHIBOUX,2 IMP DES MEUNIERS,91520,Égly,21-088139-1,2021-10-26T02:00:00+02:00,Restauration collective,Très satisfaisant,,Restauration collective,48.57428,2.203709
30613,TERREAZUR ILE DE FRANCE WISSOUS,2 RUE DE LA CROIX BRISEE,91320,Wissous,21-075186-1,2021-09-20T02:00:00+02:00,Mareyage et préparation de produits de la pêche,Très satisfaisant,91689009.0,,48.741709,2.324677
30777,L'ARTISTE,7 RUE DE LA CROIX BOISSEE,91540,Mennecy,21-098812-1,2021-11-16T01:00:00+01:00,Restaurant,Satisfaisant,,Restaurant,48.566629,2.434305
30839,RESIDENCE DE MASSY,1 ALLEE DE MAIL HENRY DE VILMORIN,91300,Massy,21-033306-1,2021-04-27T02:00:00+02:00,Restauration collective,Satisfaisant,,Restauration collective,48.727004,2.255973
30944,BRETWAY,2 RUE MICHELE MORGAN,91220,Brétigny-sur-Orge,21-100097-1,2021-12-08T01:00:00+01:00,Restaurant,Très satisfaisant,,Restaurant,48.580554,2.300671
31306,LE BILBOQUET,LE BILBOQUET,91100,Villabé,22-015249-1,2022-03-02T01:00:00+01:00,Restaurant,Très satisfaisant,,Restaurant,48.588955,2.459836
31353,RESIDENCE DE MASSY,1 ALLEE DE MAIL HENRY DE VILMORIN,91300,Massy,21-036230-1,2021-04-27T02:00:00+02:00,Restauration collective,Satisfaisant,,Restauration collective,48.727004,2.255973
31442,ELRES,rue Jean Bouvet,91100,Corbeil-Essonnes,21-034196-1,2021-04-15T02:00:00+02:00,Restauration collective,Très satisfaisant,91174002.0,Restauration collective,48.593971,2.465976
31696,RESIDENCE DE MASSY,1 ALLEE DE MAIL HENRY DE VILMORIN,91300,Massy,21-033320-1,2021-04-27T02:00:00+02:00,Restauration collective,Satisfaisant,,Restauration collective,48.727004,2.255973
31734,LA GIRANDIERE,6 impasse des Erables,91420,Morangis,21-030163-1,2021-04-15T02:00:00+02:00,Restauration collective,Satisfaisant,,Restauration collective,48.708744,2.333384
31920,GESTION HOPITAL PRIV GERIAT MAGNOLIAS,77 RUE DU PERRAY,91160,Ballainvilliers,21-034137-1,2021-04-29T02:00:00+02:00,Restauration collective,Très satisfaisant,,Restauration collective,48.659056,2.283972
32012,KUMO,33 RUE DE L'INDUSTRIE,91210,Draveil,21-097758-1,2021-12-01T01:00:00+01:00,Restauration collective,Très satisfaisant,91201001.0,Restauration collective,48.685792,2.435959
32031,BOMON,ROUTE DE FAVREUSE,91570,Bièvres,21-070402-1,2021-09-07T02:00:00+02:00,Chaîne d'abattage de volaille/lagomorphe/petit gibier,Très satisfaisant,91064131.0,,48.742623,2.193409
32059,LA GIRANDIERE,20 RUE DU BOIS DE CHATRES,91220,Brétigny-sur-Orge,21-042601-1,2021-05-26T02:00:00+02:00,Restauration collective,Satisfaisant,,Restauration collective,48.604026,2.296218
32198,CARREFOUR,Route de Villoison,91100,Villabé,21-062043-1,2021-08-04T02:00:00+02:00,Rayon traiteur,Satisfaisant,,Rayon traiteur,48.588546,2.452578
32232,COLLEGE MONTESQUIEU,AVENUE DE LA LIBERTE,91000,Évry-Courcouronnes,21-040430-1,2021-05-18T02:00:00+02:00,Restauration collective,Très satisfaisant,,Restauration collective,48.637644,2.435152
32311,BOMON,ROUTE DE FAVREUSE,91570,Bièvres,21-070408-1,2021-09-07T02:00:00+02:00,Découpe de viandes de volailles/lagomorphe,Très satisfaisant,91064131.0,,48.742623,2.193409
32327,DIRECTION GENERALE,19 place MARGUERITE PEREY,91120,Palaiseau,21-087132-1,2021-10-22T02:00:00+02:00,Restauration collective,Très satisfaisant,91477001.0,Restauration collective,48.714082,2.201073
32431,SIVU RESTAURATION MUNICIPAL MASSY CHILLY,"18, route de massy",91380,Chilly-Mazarin,21-056348-1,2021-07-05T02:00:00+02:00,Restauration collective,Très satisfaisant,91161016.0,Restauration collective,48.711871,2.304071
32504,AUCHAN FRANCE,"8, rue de la longueraie",91270,Vigneux-sur-Seine,21-081594-1,2021-09-22T02:00:00+02:00,Libre service,Très satisfaisant,,Libre service,48.719073,2.439595
32726,CHICKEN CITY,37 AV HENRI BARBUSSE,91270,Vigneux-sur-Seine,22-016959-1,2022-03-04T01:00:00+01:00,Restaurant,Très satisfaisant,,Restaurant,48.698568,2.416552
32730,HALTE GARDERIE,130 rue de Cerçay,91800,Brunoy,21-057947-1,2021-07-20T02:00:00+02:00,Restauration collective,Très satisfaisant,,Restauration collective,48.708204,2.524756
32745,CARREFOUR,Route de Villoison,91100,Villabé,21-062010-1,2021-08-04T02:00:00+02:00,Libre service,Satisfaisant,,Libre service,48.588546,2.452578
32840,LA VOLAILLE PRUNAYSIENNE,16 RUE DE LA VALLEE,91720,Prunay-sur-Essonne,21-094201-1,2021-11-19T01:00:00+01:00,Producteur fermier,Très satisfaisant,,Producteur fermier,48.358529,2.372518
32947,INTERMARCHE,RUE D ANGERVILLE,91660,Le Mérévillois,21-063805-1,2021-08-10T02:00:00+02:00,Rayon poissonnerie,Satisfaisant,,Rayon poissonnerie,48.318556,2.081166
32950,INTERMARCHE,RUE D ANGERVILLE,91660,Le Mérévillois,21-063857-1,2021-08-10T02:00:00+02:00,Rayon boucherie-charcuterie,Satisfaisant,,Rayon boucherie-charcuterie,48.318556,2.081166
32995,L ILE AUX ENFANTS,180 chemin des Aulnettes,91640,Briis-sous-Forges,21-035300-1,2021-05-03T02:00:00+02:00,Restauration collective,Satisfaisant,,Restauration collective,48.627933,2.122697
33323,WINNER FOODS FRANCE,"34, RUE DES ENTREPRENEURS",91560,Crosne,21-103954-1,2021-12-15T01:00:00+01:00,Transformation de produits carnés,Satisfaisant,91191007.0,,48.726268,2.474034
33326,WINNER FOODS FRANCE,"34, RUE DES ENTREPRENEURS",91560,Crosne,21-106451-1,2021-12-15T01:00:00+01:00,Entreposage de distribution de denrées alimentaires,Très satisfaisant,91191007.0,,48.726268,2.474034
33359,Multi-accueil les p'tits grillons,6 RUE VIVALDI,91280,Saint-Pierre-du-Perray,21-079377-1,2021-09-29T02:00:00+02:00,Restauration collective,Satisfaisant,,Restauration collective,48.611119,2.511438
33389,GESTION HOPITAL PRIV GERIAT MAGNOLIAS,CENTRE GERIATRIE LES MAGNOLIAS,91160,Ballainvilliers,21-037260-1,2021-04-29T02:00:00+02:00,Restauration collective,Très satisfaisant,,Restauration collective,48.672662,2.290083
33455,ABBAYE SAINT LOUIS DU TEMPLE,MAISON RETRAITE ABBAYE ST LOUIS,91430,Vauhallan,21-028506-1,2021-04-07T02:00:00+02:00,Restauration collective,Satisfaisant,,Restauration collective,48.735021,2.207876
33573,MAIRIE COMMUNE DE SAINTE-GENEVIEVE-DES-BOIS,7 PLACE ROGER PERRIAUD,91700,Sainte-Geneviève-des-Bois,21-029700-1,2021-04-08T02:00:00+02:00,Restauration collective,Très satisfaisant,91549005.0,Restauration collective,48.640883,2.325941
33884,LES PARENTELES DE LA VILLE DU BOIS,"18, Allée Victor HUGO",91620,La Ville-du-Bois,21-037960-1,2021-05-12T02:00:00+02:00,Restauration collective,Satisfaisant,,Restauration collective,48.658298,2.265879
33896,ABATTOIRS DU SUD,1 RUE DES ROCHETTES,91150,Morigny-Champigny,21-051728-1,2021-06-30T02:00:00+02:00,Chaîne d'abattage de volaille/lagomorphe/petit gibier,Très satisfaisant,91433001.0,,48.451788,2.170968
33930,WINNER FOODS FRANCE,"34, RUE DES ENTREPRENEURS",91560,Crosne,21-106446-1,2021-12-15T01:00:00+01:00,"VH, VSM, préparation viandes volailles lagomorphes",Très satisfaisant,91191007.0,,48.726268,2.474034
34065,COLLEGE EUGENE DELACROIX,63 rue ferdinand buisson,91210,Draveil,21-037885-1,2021-05-17T02:00:00+02:00,Restauration collective,Satisfaisant,,Restauration collective,48.674726,2.407752
34111,GESTION HOPITAL PRIV GERIAT MAGNOLIAS,CENTRE GERIATRIE LES MAGNOLIAS,91160,Ballainvilliers,21-037296-1,2021-04-29T02:00:00+02:00,Restauration collective,Très satisfaisant,,Restauration collective,48.672662,2.290083
34256,LE RELAIS DE MONDESIR,6 LE MUID DE LA SOUCHE,91690,Guillerval,21-101555-1,2021-12-13T01:00:00+01:00,Restaurant,Très satisfaisant,,Restaurant,48.372863,2.07874
34324,Laiterie des Bas Vignons Société Nouvelle,"54, quai bourgoin",91100,Corbeil-Essonnes,21-105802-1,2021-12-13T01:00:00+01:00,Transformation de lait ou produits laitiers,Satisfaisant,91174021.0,,48.6089,2.487922
34440,MAXIMO,MAXIMO 10,91380,Chilly-Mazarin,21-105890-1,2021-12-29T01:00:00+01:00,Transport de denrées alimentaires,Très satisfaisant,,,48.704045,2.311186
34448,ANDIAMO PIZZA,ANDIAMO PIZZA,91540,Ormoy,21-106449-1,2021-12-02T01:00:00+01:00,Restaurant,Satisfaisant,,Restaurant,48.573497,2.4594
34487,ASS ECOLE SECOND SAINT CHARLES,2 RUE G. ANTHONIOZ DE GAULLE,91200,Athis-Mons,21-096945-1,2021-11-29T01:00:00+01:00,Restauration collective,Très satisfaisant,91027104.0,Restauration collective,48.709323,2.390045
34520,DOSYLE,3 RUE MICHELE MORGAN,91220,Brétigny-sur-Orge,21-083174-1,2021-10-13T02:00:00+02:00,Restaurant,Satisfaisant,,Restaurant,48.580548,2.300792
34525,GAEC FAMILLE PIGEON,5 GRANDES RUE,91580,Chauffour-lès-Étréchy,21-080625-1,2021-10-01T02:00:00+02:00,Centre d'emballage des oeufs,Très satisfaisant,91148001.0,,48.504622,2.168536
34644,A3A,"18,RUE DE BOUSSY",91480,Quincy-sous-Sénart,21-041380-1,2021-05-20T02:00:00+02:00,Restauration collective,Très satisfaisant,,Restauration collective,48.680758,2.538425
34904,S.I.M.M,6 RUE D ALGER,91300,Massy,22-014208-1,2022-02-24T01:00:00+01:00,Boucherie-Charcuterie,Satisfaisant,,Boucherie-Charcuterie,48.734642,2.294502
35029,LAHNA BOUCHERIE,35 AV HENRI CHARON,91270,Vigneux-sur-Seine,21-109350-1,2022-03-04T01:00:00+01:00,Boucherie-Charcuterie,Satisfaisant,,Boucherie-Charcuterie,48.704296,2.428541
35081,UNION MUTUALISTE D'INITIATIVE SANTE,"8, grande rue",91700,Fleury-Mérogis,21-046099-1,2021-06-03T02:00:00+02:00,Restauration collective,Très satisfaisant,,Restauration collective,48.636074,2.362891
35139,MAMA GAYA,104 AV DE LA GARE,91300,Massy,22-000362-1,2022-01-04T01:00:00+01:00,Restaurant,A améliorer,,Restaurant,48.733952,2.273154
35175,LE CENTENAIRE,11 rue du parc,91740,Pussay,21-035494-1,2021-05-05T02:00:00+02:00,Restauration collective,Très satisfaisant,,Restauration collective,48.347162,1.990241
35275,CHIKEN NW,67 AV DE BELLEVUE,91210,Draveil,21-070140-1,2021-08-25T02:00:00+02:00,Restaurant,Satisfaisant,,Restaurant,48.688127,2.390438
35514,COLLEGE PICASSO,"32, rue du pont neuf",91160,Saulx-les-Chartreux,20-096500-1,2021-06-17T02:00:00+02:00,Restauration collective,Très satisfaisant,91587103.0,Restauration collective,48.690413,2.279997
